course,stop_code,stop_id,stop_name,route_short_name,trip_headsign,direction_id,departure_time,is_theorical,delay_sec,dest_ar_code
268436158,ANTIGRTW,41217,ANTIGONE,1,MOSSON,1,10:16:13,0,101,41101
268436056,ANTIGRTW,41217,ANTIGONE,1,MOSSON,1,10:18:02,0,210,41101
268436119,ANTIGRTW,41217,ANTIGONE,1,MOSSON,1,10:22:35,0,483,41101
268435916,BOUTORTW,41233,BOUTONNET,1,MOSSON,1,10:15:25,0,53,41101
268436024,BOUTORTW,41233,BOUTONNET,1,MOSSON,1,10:20:42,0,370,41101
268436087,BOUTORTW,41233,BOUTONNET,1,MOSSON,1,10:24:36,0,604,41101
268435989,CHATORTW,41243,CHATEAU D'O,1,MOSSON,1,10:17:22,0,170,41101
268435916,CHATORTW,41243,CHATEAU D'O,1,MOSSON,1,10:24:13,0,581,41101
268436024,CHATORTW,41243,CHATEAU D'O,1,MOSSON,1,10:29:21,0,889,41101
268436158,COMEDRTW,41223,COMEDIE,1,MOSSON,1,10:22:36,0,484,41101
268436056,COMEDRTW,41223,COMEDIE,1,MOSSON,1,10:24:22,0,590,41101
268436119,COMEDRTW,41223,COMEDIE,1,MOSSON,1,10:28:47,0,855,41101
268436087,CORUMRTW,41225,CORUM T1,1,MOSSON,1,10:17:30,0,178,41101
268436158,CORUMRTW,41225,CORUM T1,1,MOSSON,1,10:26:57,0,745,41101
268436056,CORUMRTW,41225,CORUM T1,1,MOSSON,1,10:28:27,0,835,41101
268436158,DUGUESCE,41218,DU GUESCLIN,1,MOSSON,1,10:18:55,0,263,41101
268436056,DUGUESCE,41218,DU GUESCLIN,1,MOSSON,1,10:20:22,0,350,41101
268436119,DUGUESCE,41218,DU GUESCLIN,1,MOSSON,1,10:24:44,0,612,41101
268435958,EUROMRTW,41247,EUROMEDECINE,1,MOSSON,1,10:18:57,0,265,41101
268435989,EUROMRTW,41247,EUROMEDECINE,1,MOSSON,1,10:21:22,0,410,41101
268435916,EUROMRTW,41247,EUROMEDECINE,1,MOSSON,1,10:28:13,0,821,41101
268436158,GARERTW,41221,GARE ST-ROCH T1,1,MOSSON,1,10:20:58,0,386,41101
268436056,GARERTW,41221,GARE ST-ROCH T1,1,MOSSON,1,10:22:25,0,473,41101
268436119,GARERTW,41221,GARE ST-ROCH T1,1,MOSSON,1,10:26:47,0,735,41101
268435927,HALLPRTW,41253,HALLES PAILLADE,1,MOSSON,1,10:18:19,0,227,41101
268435958,HALLPRTW,41253,HALLES PAILLADE,1,MOSSON,1,10:23:49,0,557,41101
268435989,HALLPRTW,41253,HALLES PAILLADE,1,MOSSON,1,10:26:41,0,729,41101
268435958,HTMASRTW,41249,HAUTS DE MASSANE,1,MOSSON,1,10:20:31,0,359,41101
268435989,HTMASRTW,41249,HAUTS DE MASSANE,1,MOSSON,1,10:23:22,0,530,41101
268435916,HTMASRTW,41249,HAUTS DE MASSANE,1,MOSSON,1,10:30:13,0,941,41101
268435916,LAPEYRTW,41239,HOP. LAPEYRONIE,1,MOSSON,1,10:21:20,0,408,41101
268436024,LAPEYRTW,41239,HOP. LAPEYRONIE,1,MOSSON,1,10:25:44,0,672,41101
268436087,LAPEYRTW,41239,HOP. LAPEYRONIE,1,MOSSON,1,10:30:27,0,955,41101
268436158,LBLUMRTW,41215,LEON BLUM,1,MOSSON,1,10:14:57,0,25,41101
268436056,LBLUMRTW,41215,LEON BLUM,1,MOSSON,1,10:16:24,0,112,41101
268436119,LBLUMRTW,41215,LEON BLUM,1,MOSSON,1,10:20:46,0,374,41101
268436024,BLANCRTW,41227,LOUIS BLANC,1,MOSSON,1,10:14:40,0,8,41101
268436087,BLANCRTW,41227,LOUIS BLANC,1,MOSSON,1,10:19:06,0,274,41101
268436158,BLANCRTW,41227,LOUIS BLANC,1,MOSSON,1,10:28:19,0,827,41101
268435958,MALBORTW,41245,MALBOSC,1,MOSSON,1,10:16:31,0,119,41101
268435989,MALBORTW,41245,MALBOSC,1,MOSSON,1,10:19:22,0,290,41101
268435916,MALBORTW,41245,MALBOSC,1,MOSSON,1,10:26:13,0,701,41101
268436224,MILLERTW,41203,MILLENAIRE,1,MOSSON,1,10:15:12,0,40,41101
268436307,MILLERTW,41203,MILLENAIRE,1,MOSSON,1,10:21:23,0,411,41101
268436193,MILLERTW,41203,MILLENAIRE,1,MOSSON,1,10:26:23,0,711,41101
268436224,MONDIRTW,41205,MONDIAL 98,1,MOSSON,1,10:16:50,0,138,41101
268436307,MONDIRTW,41205,MONDIAL 98,1,MOSSON,1,10:22:49,0,497,41101
268436193,MONDIRTW,41205,MONDIAL 98,1,MOSSON,1,10:27:49,0,797,41101
268436119,MOULARTW,41209,MOULARES,1,MOSSON,1,10:15:36,0,64,41101
268436224,MOULARTW,41209,MOULARES,1,MOSSON,1,10:19:50,0,318,41101
268436307,MOULARTW,41209,MOULARES,1,MOSSON,1,10:25:49,0,677,41101
268435989,OCCITRTW,41241,OCCITANIE,1,MOSSON,1,10:15:22,0,50,41101
268435916,OCCITRTW,41241,OCCITANIE,1,MOSSON,1,10:22:13,0,461,41101
268436024,OCCITRTW,41241,OCCITANIE,1,MOSSON,1,10:27:21,0,769,41101
268436307,ODYSSETW,41201,ODYSSEUM,1,MOSSON,1,10:18:00,0,208,41101
268436193,ODYSSETW,41201,ODYSSEUM,1,MOSSON,1,10:23:00,0,508,41101
268436252,ODYSSETW,41201,ODYSSEUM,1,MOSSON,1,10:28:00,0,808,41101
268436024,PHILIRTW,41231,PHILIPPIDES,1,MOSSON,1,10:18:31,0,239,41101
268436087,PHILIRTW,41231,PHILIPPIDES,1,MOSSON,1,10:23:29,0,537,41101
268436158,PHILIRTW,41231,PHILIPPIDES,1,MOSSON,1,10:32:25,0,1073,41101
268436119,EUROPRTW,41213,PL. DE L'EUROPE,1,MOSSON,1,10:18:46,0,254,41101
268436224,EUROPRTW,41213,PL. DE L'EUROPE,1,MOSSON,1,10:22:48,0,496,41101
268436307,EUROPRTW,41213,PL. DE L'EUROPE,1,MOSSON,1,10:28:59,0,867,41101
268436024,ALBE1RTW,41229,PLACE ALBERT 1ER,1,MOSSON,1,10:16:57,0,145,41101
268436087,ALBE1RTW,41229,PLACE ALBERT 1ER,1,MOSSON,1,10:21:30,0,418,41101
268436158,ALBE1RTW,41229,PLACE ALBERT 1ER,1,MOSSON,1,10:30:58,0,986,41101
268436307,PFRANCEE,41261,PLACE DE FRANCE,1,MOSSON,1,10:19:59,0,327,41101
268436193,PFRANCEE,41261,PLACE DE FRANCE,1,MOSSON,1,10:24:59,0,627,41101
268436252,PFRANCEE,41261,PLACE DE FRANCE,1,MOSSON,1,10:29:59,0,927,41101
268436224,PMARIRTW,41207,PORT MARIANNE,1,MOSSON,1,10:18:26,0,234,41101
268436307,PMARIRTW,41207,PORT MARIANNE,1,MOSSON,1,10:23:59,0,567,41101
268436193,PMARIRTW,41207,PORT MARIANNE,1,MOSSON,1,10:28:59,0,867,41101
268436119,RILEZRTW,41211,RIVES DU LEZ T1,1,MOSSON,1,10:17:47,0,195,41101
268436224,RILEZRTW,41211,RIVES DU LEZ T1,1,MOSSON,1,10:21:38,0,426,41101
268436307,RILEZRTW,41211,RIVES DU LEZ T1,1,MOSSON,1,10:27:59,0,807,41101
268435916,STELORTW,41235,SAINT-ELOI,1,MOSSON,1,10:17:12,0,160,41101
268436024,STELORTW,41235,SAINT-ELOI,1,MOSSON,1,10:21:42,0,430,41101
268436087,STELORTW,41235,SAINT-ELOI,1,MOSSON,1,10:26:30,0,718,41101
268435927,STPAURTW,41251,SAINT-PAUL,1,MOSSON,1,10:16:13,0,101,41101
268435958,STPAURTW,41251,SAINT-PAUL,1,MOSSON,1,10:22:57,0,505,41101
268435989,STPAURTW,41251,SAINT-PAUL,1,MOSSON,1,10:25:22,0,650,41101
268435876,STMOSSOS,41263,STADE MOSSON,1,MOSSON,1,10:16:03,0,91,41101
268435927,STMOSSOS,41263,STADE MOSSON,1,MOSSON,1,10:19:13,0,281,41101
268435958,STMOSSOS,41263,STADE MOSSON,1,MOSSON,1,10:25:52,0,680,41101
268435916,SCIENRTW,41237,UNIVERSITES,1,MOSSON,1,10:18:39,0,247,41101
268436024,SCIENRTW,41237,UNIVERSITES,1,MOSSON,1,10:23:51,0,559,41101
268436087,SCIENRTW,41237,UNIVERSITES,1,MOSSON,1,10:27:45,0,793,41101
268436277,ANTIGATW,41139,ANTIGONE,1,ODYSSEUM,0,10:18:33,0,241,41155
268435507,ANTIGATW,41139,ANTIGONE,1,ODYSSEUM,0,10:19:31,0,299,41155
268435597,ANTIGATW,41139,ANTIGONE,1,ODYSSEUM,0,10:20:33,0,361,41155
268435628,BOUTOATW,41123,BOUTONNET,1,ODYSSEUM,0,10:19:19,0,287,41155
268435766,BOUTOATW,41123,BOUTONNET,1,ODYSSEUM,0,10:22:48,0,496,41155
268435701,BOUTOATW,41123,BOUTONNET,1,ODYSSEUM,0,10:27:47,0,795,41155
268435701,CHATOATW,41113,CHATEAU D'O,1,ODYSSEUM,0,10:19:23,0,291,41155
268435732,CHATOATW,41113,CHATEAU D'O,1,ODYSSEUM,0,10:26:57,0,745,41155
268435797,CHATOATW,41113,CHATEAU D'O,1,ODYSSEUM,0,10:29:00,0,868,41155
268435547,COMEDATW,41133,COMEDIE,1,ODYSSEUM,0,10:17:32,0,180,41155
268435670,COMEDATW,41133,COMEDIE,1,ODYSSEUM,0,10:23:57,0,565,41155
268435628,COMEDATW,41133,COMEDIE,1,ODYSSEUM,0,10:29:32,0,900,41155
268435547,CORUMATW,41131,CORUM T1,1,ODYSSEUM,0,10:14:47,0,15,41155
268435670,CORUMATW,41131,CORUM T1,1,ODYSSEUM,0,10:20:58,0,386,41155
268435628,CORUMATW,41131,CORUM T1,1,ODYSSEUM,0,10:26:32,0,720,41155
268436277,DUGUESCS,41138,DU GUESCLIN,1,ODYSSEUM,0,10:15:43,0,71,41155
268435507,DUGUESCS,41138,DU GUESCLIN,1,ODYSSEUM,0,10:16:41,0,129,41155
268435597,DUGUESCS,41138,DU GUESCLIN,1,ODYSSEUM,0,10:17:51,0,199,41155
268435701,EUROMATW,41109,EUROMEDECINE,1,ODYSSEUM,0,10:15:23,0,51,41155
268435732,EUROMATW,41109,EUROMEDECINE,1,ODYSSEUM,0,10:22:57,0,505,41155
268435797,EUROMATW,41109,EUROMEDECINE,1,ODYSSEUM,0,10:25:00,0,628,41155
268435507,GARETW,41135,GARE ST-ROCH T1,1,ODYSSEUM,0,10:14:38,0,6,41155
268435597,GARETW,41135,GARE ST-ROCH T1,1,ODYSSEUM,0,10:15:48,0,76,41155
268435547,GARETW,41135,GARE ST-ROCH T1,1,ODYSSEUM,0,10:20:20,0,348,41155
268435732,HALLPATW,41103,HALLES PAILLADE,1,ODYSSEUM,0,10:17:42,0,190,41155
268435797,HALLPATW,41103,HALLES PAILLADE,1,ODYSSEUM,0,10:20:15,0,343,41155
268435832,HALLPATW,41103,HALLES PAILLADE,1,ODYSSEUM,0,10:25:15,0,643,41155
268435732,HTMASATW,41107,HAUTS DE MASSANE,1,ODYSSEUM,0,10:21:57,0,445,41155
268435797,HTMASATW,41107,HAUTS DE MASSANE,1,ODYSSEUM,0,10:24:00,0,568,41155
268435832,HTMASATW,41107,HAUTS DE MASSANE,1,ODYSSEUM,0,10:29:00,0,868,41155
268435766,LAPEYATW,41117,HOP. LAPEYRONIE,1,ODYSSEUM,0,10:17:15,0,163,41155
268435701,LAPEYATW,41117,HOP. LAPEYRONIE,1,ODYSSEUM,0,10:22:14,0,462,41155
268435732,LAPEYATW,41117,HOP. LAPEYRONIE,1,ODYSSEUM,0,10:30:11,0,939,41155
268436277,LBLUMATW,41141,LEON BLUM,1,ODYSSEUM,0,10:19:41,0,309,41155
268435507,LBLUMATW,41141,LEON BLUM,1,ODYSSEUM,0,10:20:39,0,367,41155
268435597,LBLUMATW,41141,LEON BLUM,1,ODYSSEUM,0,10:21:49,0,437,41155
268435670,BLANCATW,41129,LOUIS BLANC,1,ODYSSEUM,0,10:19:03,0,271,41155
268435628,BLANCATW,41129,LOUIS BLANC,1,ODYSSEUM,0,10:24:38,0,606,41155
268435766,BLANCATW,41129,LOUIS BLANC,1,ODYSSEUM,0,10:28:00,0,808,41155
268435701,MALBOATW,41111,MALBOSC,1,ODYSSEUM,0,10:17:23,0,171,41155
268435732,MALBOATW,41111,MALBOSC,1,ODYSSEUM,0,10:24:57,0,625,41155
268435797,MALBOATW,41111,MALBOSC,1,ODYSSEUM,0,10:27:00,0,748,41155
268436249,MILLEATW,41153,MILLENAIRE,1,ODYSSEUM,0,10:15:43,0,71,41155
268436277,MILLEATW,41153,MILLENAIRE,1,ODYSSEUM,0,10:30:44,0,972,41155
268435507,MILLEATW,41153,MILLENAIRE,1,ODYSSEUM,0,10:31:42,0,1030,41155
268436277,MONDIATW,41151,MONDIAL 98,1,ODYSSEUM,0,10:28:47,0,855,41155
268435507,MONDIATW,41151,MONDIAL 98,1,ODYSSEUM,0,10:29:45,0,913,41155
268435597,MONDIATW,41151,MONDIAL 98,1,ODYSSEUM,0,10:30:55,0,983,41155
268435797,MOSSOATW,41101,MOSSON T1,1,ODYSSEUM,0,10:16:00,0,88,41155
268435832,MOSSOATW,41101,MOSSON T1,1,ODYSSEUM,0,10:21:00,0,388,41155
268435877,MOSSOATW,41101,MOSSON T1,1,ODYSSEUM,0,10:26:00,0,688,41155
268436277,MOULAATW,41147,MOULARES,1,ODYSSEUM,0,10:25:46,0,674,41155
268435507,MOULAATW,41147,MOULARES,1,ODYSSEUM,0,10:26:44,0,732,41155
268435597,MOULAATW,41147,MOULARES,1,ODYSSEUM,0,10:27:50,0,798,41155
268435766,OCCITATW,41115,OCCITANIE,1,ODYSSEUM,0,10:16:10,0,98,41155
268435701,OCCITATW,41115,OCCITANIE,1,ODYSSEUM,0,10:21:23,0,411,41155
268435732,OCCITATW,41115,OCCITANIE,1,ODYSSEUM,0,10:28:57,0,865,41155
268435670,PHILIATW,41125,PHILIPPIDES,1,ODYSSEUM,0,10:15:01,0,29,41155
268435628,PHILIATW,41125,PHILIPPIDES,1,ODYSSEUM,0,10:20:32,0,360,41155
268435766,PHILIATW,41125,PHILIPPIDES,1,ODYSSEUM,0,10:24:06,0,574,41155
268436277,EUROPATW,41143,PL. DE L'EUROPE,1,ODYSSEUM,0,10:21:41,0,429,41155
268435507,EUROPATW,41143,PL. DE L'EUROPE,1,ODYSSEUM,0,10:22:39,0,487,41155
268435597,EUROPATW,41143,PL. DE L'EUROPE,1,ODYSSEUM,0,10:23:49,0,557,41155
268435670,ALBE1ATW,41127,PLACE ALBERT 1ER,1,ODYSSEUM,0,10:16:59,0,147,41155
268435628,ALBE1ATW,41127,PLACE ALBERT 1ER,1,ODYSSEUM,0,10:22:32,0,480,41155
268435766,ALBE1ATW,41127,PLACE ALBERT 1ER,1,ODYSSEUM,0,10:25:55,0,683,41155
268436249,PFRANCES,41161,PLACE DE FRANCE,1,ODYSSEUM,0,10:17:13,0,161,41155
268436277,PFRANCES,41161,PLACE DE FRANCE,1,ODYSSEUM,0,10:31:41,0,1029,41155
268435507,PFRANCES,41161,PLACE DE FRANCE,1,ODYSSEUM,0,10:32:39,0,1087,41155
268436277,PMARIATW,41149,PORT MARIANNE,1,ODYSSEUM,0,10:27:41,0,789,41155
268435507,PMARIATW,41149,PORT MARIANNE,1,ODYSSEUM,0,10:28:39,0,847,41155
268435597,PMARIATW,41149,PORT MARIANNE,1,ODYSSEUM,0,10:29:39,0,907,41155
268436277,RILEZATW,41145,RIVES DU LEZ T1,1,ODYSSEUM,0,10:23:41,0,549,41155
268435507,RILEZATW,41145,RIVES DU LEZ T1,1,ODYSSEUM,0,10:24:39,0,607,41155
268435597,RILEZATW,41145,RIVES DU LEZ T1,1,ODYSSEUM,0,10:25:49,0,677,41155
268435628,STELOATW,41121,SAINT-ELOI,1,ODYSSEUM,0,10:17:32,0,180,41155
268435766,STELOATW,41121,SAINT-ELOI,1,ODYSSEUM,0,10:21:10,0,398,41155
268435701,STELOATW,41121,SAINT-ELOI,1,ODYSSEUM,0,10:26:23,0,711,41155
268435732,STPAUATW,41105,SAINT-PAUL,1,ODYSSEUM,0,10:19:57,0,325,41155
268435797,STPAUATW,41105,SAINT-PAUL,1,ODYSSEUM,0,10:22:00,0,448,41155
268435832,STPAUATW,41105,SAINT-PAUL,1,ODYSSEUM,0,10:27:00,0,748,41155
268435732,STMOSSOE,41163,STADE MOSSON,1,ODYSSEUM,0,10:15:57,0,85,41155
268435797,STMOSSOE,41163,STADE MOSSON,1,ODYSSEUM,0,10:18:00,0,208,41155
268435832,STMOSSOE,41163,STADE MOSSON,1,ODYSSEUM,0,10:23:00,0,508,41155
268435628,SCIENATW,41119,UNIVERSITES,1,ODYSSEUM,0,10:15:45,0,73,41155
268435766,SCIENATW,41119,UNIVERSITES,1,ODYSSEUM,0,10:19:41,0,309,41155
268435701,SCIENATW,41119,UNIVERSITES,1,ODYSSEUM,0,10:24:38,0,606,41155
268438689,JUSSIEUA,11121,A. L. JUSSIEU,10,AIGUELONGUE,1,10:22:33,0,481,10234
268438680,JUSSIEUA,11121,A. L. JUSSIEU,10,AIGUELONGUE,1,10:45:58,0,1886,10234
268438701,JUSSIEUA,11121,A. L. JUSSIEU,10,AIGUELONGUE,1,11:02:18,0,2866,10234
268438689,AIGUE05S,5236,AIGUELONGUE,10,AIGUELONGUE,1,10:16:27,0,115,10234
268438680,AIGUE05S,5236,AIGUELONGUE,10,AIGUELONGUE,1,10:39:15,0,1483,10234
268438701,AIGUE05S,5236,AIGUELONGUE,10,AIGUELONGUE,1,10:55:59,0,2487,10234
268438689,ALPILLEA,11115,ALPILLES,10,AIGUELONGUE,1,10:17:31,0,179,10234
268438680,ALPILLEA,11115,ALPILLES,10,AIGUELONGUE,1,10:40:18,0,1546,10234
268438701,ALPILLEA,11115,ALPILLES,10,AIGUELONGUE,1,10:57:02,0,2550,10234
268438680,AVAGRICE,9117,AV. AGRICULTURE,10,AIGUELONGUE,1,10:20:27,0,355,10234
268438701,AVAGRICE,9117,AV. AGRICULTURE,10,AIGUELONGUE,1,10:35:59,0,1287,10234
268439244,AVAGRICE,9117,AV. AGRICULTURE,10,AIGUELONGUE,1,10:55:00,0,2428,10234
268438701,BELVEDEE,9109,BELVEDERE,10,AIGUELONGUE,1,10:28:57,0,865,10234
268439244,BELVEDEE,9109,BELVEDERE,10,AIGUELONGUE,1,10:48:57,0,2065,10234
268438773,BELVEDEE,9109,BELVEDERE,10,AIGUELONGUE,1,11:07:57,0,3205,10234
268438701,CELLENEE,10201,CELLENEUVE,10,AIGUELONGUE,1,10:22:00,0,448,10234
268439244,CELLENEE,10201,CELLENEUVE,10,AIGUELONGUE,1,10:42:00,0,1648,10234
268438773,CELLENEE,10201,CELLENEUVE,10,AIGUELONGUE,1,11:01:00,0,2788,10234
268438689,CHANTECA,11116,CHANTECLER,10,AIGUELONGUE,1,10:17:52,0,200,10234
268438680,CHANTECA,11116,CHANTECLER,10,AIGUELONGUE,1,10:41:19,0,1607,10234
268438701,CHANTECA,11116,CHANTECLER,10,AIGUELONGUE,1,10:57:39,0,2587,10234
268438689,CLOLUSA,11114,CLOLUS,10,AIGUELONGUE,1,10:17:24,0,172,10234
268438680,CLOLUSA,11114,CLOLUS,10,AIGUELONGUE,1,10:40:12,0,1540,10234
268438701,CLOLUSA,11114,CLOLUS,10,AIGUELONGUE,1,10:56:32,0,2520,10234
268438680,DORIAS,7216,DORIA,10,AIGUELONGUE,1,10:23:17,0,525,10234
268438701,DORIAS,7216,DORIA,10,AIGUELONGUE,1,10:38:49,0,1457,10234
268439244,DORIAS,7216,DORIA,10,AIGUELONGUE,1,10:57:50,0,2598,10234
268438680,ERABLESE,9115,ERABLES,10,AIGUELONGUE,1,10:18:23,0,231,10234
268438701,ERABLESE,9115,ERABLES,10,AIGUELONGUE,1,10:34:19,0,1187,10234
268439244,ERABLESE,9115,ERABLES,10,AIGUELONGUE,1,10:53:37,0,2345,10234
268438680,ESPERANE,9112,ESPERANCE,10,AIGUELONGUE,1,10:16:16,0,104,10234
268438701,ESPERANE,9112,ESPERANCE,10,AIGUELONGUE,1,10:32:12,0,1060,10234
268439244,ESPERANE,9112,ESPERANCE,10,AIGUELONGUE,1,10:51:51,0,2239,10234
268438680,PHARMACR,10224,FAC DE PHARMACIE,10,AIGUELONGUE,1,10:30:25,0,953,10234
268438701,PHARMACR,10224,FAC DE PHARMACIE,10,AIGUELONGUE,1,10:46:21,0,1909,10234
268439244,PHARMACR,10224,FAC DE PHARMACIE,10,AIGUELONGUE,1,11:05:22,0,3050,10234
268438680,GLYCINEE,9118,GLYCINES,10,AIGUELONGUE,1,10:21:27,0,415,10234
268438701,GLYCINEE,9118,GLYCINES,10,AIGUELONGUE,1,10:36:59,0,1347,10234
268439244,GLYCINEE,9118,GLYCINES,10,AIGUELONGUE,1,10:56:00,0,2488,10234
268438680,HDUNANTR,10210,HENRI DUNANT,10,AIGUELONGUE,1,10:33:08,0,1116,10234
268438701,HDUNANTR,10210,HENRI DUNANT,10,AIGUELONGUE,1,10:48:40,0,2048,10234
268439244,HDUNANTR,10210,HENRI DUNANT,10,AIGUELONGUE,1,11:07:41,0,3189,10234
268438680,CLRECHS,5238,HIPPOLYTE RECH,10,AIGUELONGUE,1,10:28:29,0,837,10234
268438701,CLRECHS,5238,HIPPOLYTE RECH,10,AIGUELONGUE,1,10:43:29,0,1737,10234
268439244,CLRECHS,5238,HIPPOLYTE RECH,10,AIGUELONGUE,1,11:02:30,0,2878,10234
268438680,LAPILES,3119,LA PILE,10,AIGUELONGUE,1,10:26:24,0,712,10234
268438701,LAPILES,3119,LA PILE,10,AIGUELONGUE,1,10:41:56,0,1644,10234
268439244,LAPILES,3119,LA PILE,10,AIGUELONGUE,1,11:00:57,0,2785,10234
268438680,LASCAZEE,9111,LAS CAZES,10,AIGUELONGUE,1,10:15:06,0,34,10234
268438701,LASCAZEE,9111,LAS CAZES,10,AIGUELONGUE,1,10:31:02,0,990,10234
268439244,LASCAZEE,9111,LAS CAZES,10,AIGUELONGUE,1,10:50:52,0,2180,10234
268438680,LASSORBE,9114,LAS SORBES,10,AIGUELONGUE,1,10:18:06,0,214,10234
268438701,LASSORBE,9114,LAS SORBES,10,AIGUELONGUE,1,10:33:38,0,1146,10234
268439244,LASSORBE,9114,LAS SORBES,10,AIGUELONGUE,1,10:53:03,0,2311,10234
268438680,LOUVAINE,9116,LOUVAIN,10,AIGUELONGUE,1,10:19:09,0,277,10234
268438701,LOUVAINE,9116,LOUVAIN,10,AIGUELONGUE,1,10:35:05,0,1233,10234
268439244,LOUVAINE,9116,LOUVAIN,10,AIGUELONGUE,1,10:54:15,0,2383,10234
268438680,CAIZERGS,5234,MARIE CAIZERGUES,10,AIGUELONGUE,1,10:36:09,0,1297,10234
268438701,CAIZERGS,5234,MARIE CAIZERGUES,10,AIGUELONGUE,1,10:51:49,0,2237,10234
268439244,CAIZERGS,5234,MARIE CAIZERGUES,10,AIGUELONGUE,1,11:10:50,0,3378,10234
268438701,MCURIER,1224,MARIE CURIE,10,AIGUELONGUE,1,10:23:53,0,561,10234
268439244,MCURIER,1224,MARIE CURIE,10,AIGUELONGUE,1,10:43:53,0,1761,10234
268438773,MCURIER,1224,MARIE CURIE,10,AIGUELONGUE,1,11:02:53,0,2901,10234
268438689,MOULINGA,11119,MOULIN GASCONNET,10,AIGUELONGUE,1,10:19:37,0,305,10234
268438680,MOULINGA,11119,MOULIN GASCONNET,10,AIGUELONGUE,1,10:43:02,0,1710,10234
268438701,MOULINGA,11119,MOULIN GASCONNET,10,AIGUELONGUE,1,10:59:22,0,2690,10234
268438680,NAZARETS,5232,NAZARETH,10,AIGUELONGUE,1,10:37:06,0,1354,10234
268438701,NAZARETS,5232,NAZARETH,10,AIGUELONGUE,1,10:53:25,0,2333,10234
268439244,NAZARETS,5232,NAZARETH,10,AIGUELONGUE,1,11:12:26,0,3474,10234
268438680,ARCEAUXE,7115,PALADILHE,10,AIGUELONGUE,1,10:22:23,0,471,10234
268438701,ARCEAUXE,7115,PALADILHE,10,AIGUELONGUE,1,10:38:19,0,1427,10234
268439244,ARCEAUXE,7115,PALADILHE,10,AIGUELONGUE,1,10:57:20,0,2568,10234
268438701,PETITBAR,1225,PETIT BARD,10,AIGUELONGUE,1,10:25:00,0,628,10234
268439244,PETITBAR,1225,PETIT BARD,10,AIGUELONGUE,1,10:45:00,0,1828,10234
268438773,PETITBAR,1225,PETIT BARD,10,AIGUELONGUE,1,11:04:00,0,2968,10234
268438680,ADHEMARS,10263,PIERRE D'ADHEMAR,10,AIGUELONGUE,1,10:29:15,0,883,10234
268438701,ADHEMARS,10263,PIERRE D'ADHEMAR,10,AIGUELONGUE,1,10:44:47,0,1815,10234
268439244,ADHEMARS,10263,PIERRE D'ADHEMAR,10,AIGUELONGUE,1,11:03:48,0,2956,10234
268438689,PIERRERA,11113,PIERRE ROUGE,10,AIGUELONGUE,1,10:15:02,0,30,10234
268438680,PIERRERA,11113,PIERRE ROUGE,10,AIGUELONGUE,1,10:38:25,0,1433,10234
268438701,PIERRERA,11113,PIERRE ROUGE,10,AIGUELONGUE,1,10:54:31,0,2399,10234
268438689,PIOCHBOA,11117,PIOCH BOUTONNET,10,AIGUELONGUE,1,10:18:27,0,235,10234
268438680,PIOCHBOA,11117,PIOCH BOUTONNET,10,AIGUELONGUE,1,10:41:15,0,1603,10234
268438701,PIOCHBOA,11117,PIOCH BOUTONNET,10,AIGUELONGUE,1,10:57:59,0,2607,10234
268438701,RENAUDER,1223,RENAUDEL,10,AIGUELONGUE,1,10:23:03,0,511,10234
268439244,RENAUDER,1223,RENAUDEL,10,AIGUELONGUE,1,10:43:03,0,1711,10234
268438773,RENAUDER,1223,RENAUDEL,10,AIGUELONGUE,1,11:02:03,0,2851,10234
268438689,BOUGNOLS,11120,RENE BOUGNOL,10,AIGUELONGUE,1,10:21:27,0,415,10234
268438680,BOUGNOLS,11120,RENE BOUGNOL,10,AIGUELONGUE,1,10:44:15,0,1783,10234
268438701,BOUGNOLS,11120,RENE BOUGNOL,10,AIGUELONGUE,1,11:00:59,0,2787,10234
268438701,STCLEMEE,9110,SAINT-CLEMENT,10,AIGUELONGUE,1,10:30:00,0,928,10234
268439244,STCLEMEE,9110,SAINT-CLEMENT,10,AIGUELONGUE,1,10:50:00,0,2128,10234
268438773,STCLEMEE,9110,SAINT-CLEMENT,10,AIGUELONGUE,1,11:09:00,0,3268,10234
268438680,STELOIR2,10223,SAINT-ELOI,10,AIGUELONGUE,1,10:32:27,0,1075,10234
268438701,STELOIR2,10223,SAINT-ELOI,10,AIGUELONGUE,1,10:47:59,0,2007,10234
268439244,STELOIR2,10223,SAINT-ELOI,10,AIGUELONGUE,1,11:07:00,0,3148,10234
268438680,STGABRIE,9113,SAINT-GABRIEL,10,AIGUELONGUE,1,10:17:23,0,171,10234
268438701,STGABRIE,9113,SAINT-GABRIEL,10,AIGUELONGUE,1,10:32:55,0,1103,10234
268439244,STGABRIE,9113,SAINT-GABRIEL,10,AIGUELONGUE,1,10:52:27,0,2275,10234
268438680,STROCHS,3118,SAINT-ROCH,10,AIGUELONGUE,1,10:25:01,0,629,10234
268438701,STROCHS,3118,SAINT-ROCH,10,AIGUELONGUE,1,10:40:33,0,1561,10234
268439244,STROCHS,3118,SAINT-ROCH,10,AIGUELONGUE,1,10:59:34,0,2702,10234
268438680,STEODILS,5233,SAINTE-ODILE,10,AIGUELONGUE,1,10:35:27,0,1255,10234
268438701,STEODILS,5233,SAINTE-ODILE,10,AIGUELONGUE,1,10:50:59,0,2187,10234
268439244,STEODILS,5233,SAINTE-ODILE,10,AIGUELONGUE,1,11:10:00,0,3328,10234
268438701,TONNELLR,1226,TONNELLES,10,AIGUELONGUE,1,10:26:17,0,705,10234
268439244,TONNELLR,1226,TONNELLES,10,AIGUELONGUE,1,10:46:17,0,1905,10234
268438773,TONNELLR,1226,TONNELLES,10,AIGUELONGUE,1,11:05:17,0,3045,10234
268438690,JUSSIEUR,11202,A. L. JUSSIEU,10,CELLENEUVE,0,10:29:21,0,889,10119
268438681,JUSSIEUR,11202,A. L. JUSSIEU,10,CELLENEUVE,0,10:50:21,0,2149,10119
268438702,JUSSIEUR,11202,A. L. JUSSIEU,10,CELLENEUVE,0,11:10:21,0,3349,10119
268438772,AIGUE05E,5136,AIGUELONGUE,10,CELLENEUVE,0,10:18:06,0,214,10119
268438690,AIGUE05E,5136,AIGUELONGUE,10,CELLENEUVE,0,10:36:00,0,1288,10119
268438681,AIGUE05E,5136,AIGUELONGUE,10,CELLENEUVE,0,10:56:00,0,2488,10119
268438690,AIGUELON,11201,AIGUELONGUE JUSS,10,CELLENEUVE,0,10:29:00,0,868,10119
268438681,AIGUELON,11201,AIGUELONGUE JUSS,10,CELLENEUVE,0,10:50:00,0,2128,10119
268438702,AIGUELON,11201,AIGUELONGUE JUSS,10,CELLENEUVE,0,11:10:00,0,3328,10119
268438772,ALPILLER,11208,ALPILLES,10,CELLENEUVE,0,10:17:26,0,174,10119
268438690,ALPILLER,11208,ALPILLES,10,CELLENEUVE,0,10:34:35,0,1203,10119
268438681,ALPILLER,11208,ALPILLES,10,CELLENEUVE,0,10:55:04,0,2432,10119
268438772,AVAGRICS,9211,AV. AGRICULTURE,10,CELLENEUVE,0,10:35:06,0,1234,10119
268438690,AVAGRICS,9211,AV. AGRICULTURE,10,CELLENEUVE,0,10:53:00,0,2308,10119
268438681,AVAGRICS,9211,AV. AGRICULTURE,10,CELLENEUVE,0,11:13:00,0,3508,10119
268439243,BELVEDES,9219,BELVEDERE,10,CELLENEUVE,0,10:19:16,0,284,10119
268438772,BELVEDES,9219,BELVEDERE,10,CELLENEUVE,0,10:41:07,0,1595,10119
268438690,BELVEDES,9219,BELVEDERE,10,CELLENEUVE,0,10:59:01,0,2669,10119
268438772,CHANTECR,11207,CHANTECLER,10,CELLENEUVE,0,10:16:28,0,116,10119
268438690,CHANTECR,11207,CHANTECLER,10,CELLENEUVE,0,10:33:37,0,1145,10119
268438681,CHANTECR,11207,CHANTECLER,10,CELLENEUVE,0,10:54:25,0,2393,10119
268438772,FLAHAUTE,5140,CHARLES FLAHAULT,10,CELLENEUVE,0,10:30:22,0,950,10119
268438690,FLAHAUTE,5140,CHARLES FLAHAULT,10,CELLENEUVE,0,10:48:16,0,2024,10119
268438681,FLAHAUTE,5140,CHARLES FLAHAULT,10,CELLENEUVE,0,11:08:16,0,3224,10119
268438772,CLOLUSR,11209,CLOLUS,10,CELLENEUVE,0,10:17:19,0,167,10119
268438690,CLOLUSR,11209,CLOLUS,10,CELLENEUVE,0,10:35:13,0,1241,10119
268438681,CLOLUSR,11209,CLOLUS,10,CELLENEUVE,0,10:55:29,0,2457,10119
268439243,ERABLESS,9213,ERABLES,10,CELLENEUVE,0,10:14:39,0,7,10119
268438772,ERABLESS,9213,ERABLES,10,CELLENEUVE,0,10:36:25,0,1313,10119
268438690,ERABLESS,9213,ERABLES,10,CELLENEUVE,0,10:54:19,0,2387,10119
268439243,ESPERANS,9216,ESPERANCE,10,CELLENEUVE,0,10:16:42,0,130,10119
268438772,ESPERANS,9216,ESPERANCE,10,CELLENEUVE,0,10:38:28,0,1436,10119
268438690,ESPERANS,9216,ESPERANCE,10,CELLENEUVE,0,10:56:22,0,2510,10119
268438772,GLYCINES,9210,GLYCINES,10,CELLENEUVE,0,10:34:23,0,1191,10119
268438690,GLYCINES,9210,GLYCINES,10,CELLENEUVE,0,10:52:17,0,2265,10119
268438681,GLYCINES,9210,GLYCINES,10,CELLENEUVE,0,11:12:17,0,3465,10119
268438772,HDUNANTA,10110,HENRI DUNANT,10,CELLENEUVE,0,10:24:50,0,618,10119
268438690,HDUNANTA,10110,HENRI DUNANT,10,CELLENEUVE,0,10:42:44,0,1692,10119
268438681,HDUNANTA,10110,HENRI DUNANT,10,CELLENEUVE,0,11:02:44,0,2892,10119
268438772,CLRECHE,5138,HIPPOLYTE RECH,10,CELLENEUVE,0,10:29:29,0,897,10119
268438690,CLRECHE,5138,HIPPOLYTE RECH,10,CELLENEUVE,0,10:47:23,0,1971,10119
268438681,CLRECHE,5138,HIPPOLYTE RECH,10,CELLENEUVE,0,11:07:23,0,3171,10119
268439243,LASCAZES,9217,LAS CAZES,10,CELLENEUVE,0,10:17:39,0,187,10119
268438772,LASCAZES,9217,LAS CAZES,10,CELLENEUVE,0,10:39:25,0,1493,10119
268438690,LASCAZES,9217,LAS CAZES,10,CELLENEUVE,0,10:57:19,0,2567,10119
268439243,LASSORBS,9214,LAS SORBES,10,CELLENEUVE,0,10:15:10,0,38,10119
268438772,LASSORBS,9214,LAS SORBES,10,CELLENEUVE,0,10:37:01,0,1349,10119
268438690,LASSORBS,9214,LAS SORBES,10,CELLENEUVE,0,10:54:55,0,2423,10119
268438772,LOUVAINS,9212,LOUVAIN,10,CELLENEUVE,0,10:36:28,0,1316,10119
268438690,LOUVAINS,9212,LOUVAIN,10,CELLENEUVE,0,10:53:37,0,2345,10119
268438681,LOUVAINS,9212,LOUVAIN,10,CELLENEUVE,0,11:13:44,0,3552,10119
268438772,CAIZERGE,11127,MARIE CAIZERGUES,10,CELLENEUVE,0,10:21:22,0,410,10119
268438690,CAIZERGE,11127,MARIE CAIZERGUES,10,CELLENEUVE,0,10:39:16,0,1484,10119
268438681,CAIZERGE,11127,MARIE CAIZERGUES,10,CELLENEUVE,0,10:59:16,0,2684,10119
268439243,MCURIEA,1114,MARIE CURIE,10,CELLENEUVE,0,10:25:21,0,649,10119
268438772,MCURIEA,1114,MARIE CURIE,10,CELLENEUVE,0,10:46:59,0,1947,10119
268438690,MCURIEA,1114,MARIE CURIE,10,CELLENEUVE,0,11:04:53,0,3021,10119
268438690,MOULINGR,11204,MOULIN GASCONNET,10,CELLENEUVE,0,10:31:40,0,1028,10119
268438681,MOULINGR,11204,MOULIN GASCONNET,10,CELLENEUVE,0,10:52:40,0,2288,10119
268438702,MOULINGR,11204,MOULIN GASCONNET,10,CELLENEUVE,0,11:12:40,0,3488,10119
268438772,NAZARETE,5134,NAZARETH,10,CELLENEUVE,0,10:20:02,0,330,10119
268438690,NAZARETE,5134,NAZARETH,10,CELLENEUVE,0,10:37:56,0,1404,10119
268438681,NAZARETE,5134,NAZARETH,10,CELLENEUVE,0,10:57:56,0,2604,10119
268438772,PALADHIL,9209,PALADILHE,10,CELLENEUVE,0,10:33:12,0,1120,10119
268438690,PALADHIL,9209,PALADILHE,10,CELLENEUVE,0,10:51:06,0,2194,10119
268438681,PALADHIL,9209,PALADILHE,10,CELLENEUVE,0,11:11:06,0,3394,10119
268439243,PETITBAA,1113,PETIT BARD,10,CELLENEUVE,0,10:23:15,0,523,10119
268438772,PETITBAA,1113,PETIT BARD,10,CELLENEUVE,0,10:45:06,0,1834,10119
268438690,PETITBAA,1113,PETIT BARD,10,CELLENEUVE,0,11:03:00,0,2908,10119
268438772,ADHEMARE,10163,PIERRE D'ADHEMAR,10,CELLENEUVE,0,10:28:40,0,848,10119
268438690,ADHEMARE,10163,PIERRE D'ADHEMAR,10,CELLENEUVE,0,10:46:24,0,1912,10119
268438681,ADHEMARE,10163,PIERRE D'ADHEMAR,10,CELLENEUVE,0,11:06:24,0,3112,10119
268438772,PIERRERR,11210,PIERRE ROUGE,10,CELLENEUVE,0,10:19:13,0,281,10119
268438690,PIERRERR,11210,PIERRE ROUGE,10,CELLENEUVE,0,10:37:07,0,1355,10119
268438681,PIERRERR,11210,PIERRE ROUGE,10,CELLENEUVE,0,10:57:07,0,2555,10119
268438772,PIOCHBOR,11206,PIOCH BOUTONNET,10,CELLENEUVE,0,10:15:06,0,34,10119
268438690,PIOCHBOR,11206,PIOCH BOUTONNET,10,CELLENEUVE,0,10:33:00,0,1108,10119
268438681,PIOCHBOR,11206,PIOCH BOUTONNET,10,CELLENEUVE,0,10:54:00,0,2368,10119
268439243,RENAUDEA,1115,RENAUDEL,10,CELLENEUVE,0,10:26:38,0,726,10119
268438772,RENAUDEA,1115,RENAUDEL,10,CELLENEUVE,0,10:48:24,0,2032,10119
268438690,RENAUDEA,1115,RENAUDEL,10,CELLENEUVE,0,11:06:18,0,3106,10119
268438690,BOUGNOLE,11203,RENE BOUGNOL,10,CELLENEUVE,0,10:30:00,0,928,10119
268438681,BOUGNOLE,11203,RENE BOUGNOL,10,CELLENEUVE,0,10:51:00,0,2188,10119
268438702,BOUGNOLE,11203,RENE BOUGNOL,10,CELLENEUVE,0,11:11:00,0,3388,10119
268439243,STCLEMES,9218,SAINT-CLEMENT,10,CELLENEUVE,0,10:18:15,0,223,10119
268438772,STCLEMES,9218,SAINT-CLEMENT,10,CELLENEUVE,0,10:40:06,0,1534,10119
268438690,STCLEMES,9218,SAINT-CLEMENT,10,CELLENEUVE,0,10:58:00,0,2608,10119
268438772,STELOIA,10136,SAINT-ELOI,10,CELLENEUVE,0,10:26:06,0,694,10119
268438690,STELOIA,10136,SAINT-ELOI,10,CELLENEUVE,0,10:44:00,0,1768,10119
268438681,STELOIA,10136,SAINT-ELOI,10,CELLENEUVE,0,11:04:00,0,2968,10119
268439243,STGABRIS,9215,SAINT-GABRIEL,10,CELLENEUVE,0,10:16:23,0,111,10119
268438772,STGABRIS,9215,SAINT-GABRIEL,10,CELLENEUVE,0,10:37:50,0,1398,10119
268438690,STGABRIS,9215,SAINT-GABRIEL,10,CELLENEUVE,0,10:55:44,0,2472,10119
268438772,STEODILE,11128,SAINTE-ODILE,10,CELLENEUVE,0,10:22:06,0,454,10119
268438690,STEODILE,11128,SAINTE-ODILE,10,CELLENEUVE,0,10:40:00,0,1528,10119
268438681,STEODILE,11128,SAINTE-ODILE,10,CELLENEUVE,0,11:00:00,0,2728,10119
268439243,TONNELLA,1112,TONNELLES,10,CELLENEUVE,0,10:22:10,0,458,10119
268438772,TONNELLA,1112,TONNELLES,10,CELLENEUVE,0,10:44:01,0,1769,10119
268438690,TONNELLA,1112,TONNELLES,10,CELLENEUVE,0,11:01:55,0,2843,10119
268438855,BAGATELS,4244,BAGATELLE,11,LES BOUISSES,1,10:22:20,0,468,7261
268438793,BAGATELS,4244,BAGATELLE,11,LES BOUISSES,1,10:26:10,0,698,7261
268438991,BAGATELS,4244,BAGATELLE,11,LES BOUISSES,1,10:38:11,0,1419,7261
268438855,CHASSEUR,4230,CHASSEURS,11,LES BOUISSES,1,10:17:25,0,173,7261
268438793,CHASSEUR,4230,CHASSEURS,11,LES BOUISSES,1,10:20:56,0,384,7261
268438991,CHASSEUR,4230,CHASSEURS,11,LES BOUISSES,1,10:32:57,0,1105,7261
268438855,CHDUS,4102,CHENG-DU,11,LES BOUISSES,1,10:23:26,0,534,7261
268438793,CHDUS,4102,CHENG-DU,11,LES BOUISSES,1,10:27:16,0,764,7261
268438991,CHDUS,4102,CHENG-DU,11,LES BOUISSES,1,10:39:17,0,1485,7261
268438832,CARMEE,3108,CITE DE L'ARME,11,LES BOUISSES,1,10:15:31,0,59,7261
268438813,CARMEE,3108,CITE DE L'ARME,11,LES BOUISSES,1,10:31:59,0,1047,7261
268439001,CARMEE,3108,CITE DE L'ARME,11,LES BOUISSES,1,10:40:59,0,1587,7261
268438855,CITGELYS,11231,CITE GELY,11,LES BOUISSES,1,10:16:21,0,109,7261
268438793,CITGELYS,11231,CITE GELY,11,LES BOUISSES,1,10:20:11,0,339,7261
268438991,CITGELYS,11231,CITE GELY,11,LES BOUISSES,1,10:32:12,0,1060,7261
268438991,CMIONE,3112,CITE MION,11,LES BOUISSES,1,10:16:13,0,101,7261
268438832,CMIONE,3112,CITE MION,11,LES BOUISSES,1,10:19:32,0,300,7261
268438813,CMIONE,3112,CITE MION,11,LES BOUISSES,1,10:36:00,0,1288,7261
268438855,CVALETTR,4232,CITE VALETTE,11,LES BOUISSES,1,10:18:24,0,232,7261
268438793,CVALETTR,4232,CITE VALETTE,11,LES BOUISSES,1,10:22:31,0,479,7261
268438991,CVALETTR,4232,CITE VALETTE,11,LES BOUISSES,1,10:34:24,0,1192,7261
268438855,MPAGNOLS,4242,COLLEGE PAGNOL,11,LES BOUISSES,1,10:21:21,0,409,7261
268438793,MPAGNOLS,4242,COLLEGE PAGNOL,11,LES BOUISSES,1,10:25:11,0,639,7261
268438991,MPAGNOLS,4242,COLLEGE PAGNOL,11,LES BOUISSES,1,10:37:12,0,1360,7261
268438793,CRAPONNS,15105,CRAPONNE,11,LES BOUISSES,1,10:15:32,0,60,7261
268438991,CRAPONNS,15105,CRAPONNE,11,LES BOUISSES,1,10:27:33,0,781,7261
268438832,CRAPONNS,15105,CRAPONNE,11,LES BOUISSES,1,10:30:35,0,963,7261
268438832,FFABREGE,3110,F. FABREGE,11,LES BOUISSES,1,10:17:35,0,183,7261
268438813,FFABREGE,3110,F. FABREGE,11,LES BOUISSES,1,10:34:03,0,1171,7261
268439001,FFABREGE,3110,F. FABREGE,11,LES BOUISSES,1,10:43:03,0,1711,7261
268438991,GAMBETTS,1104,GAMBETTA,11,LES BOUISSES,1,10:26:13,0,701,7261
268438832,GAMBETTS,1104,GAMBETTA,11,LES BOUISSES,1,10:29:32,0,900,7261
268438813,GAMBETTS,1104,GAMBETTA,11,LES BOUISSES,1,10:46:00,0,1888,7261
268438813,GLORCAE,3107,GARCIA LORCA,11,LES BOUISSES,1,10:30:59,0,987,7261
268439001,GLORCAE,3107,GARCIA LORCA,11,LES BOUISSES,1,10:39:59,0,1527,7261
268438849,GLORCAE,3107,GARCIA LORCA,11,LES BOUISSES,1,10:49:59,0,2127,7261
268438991,GARESETE,11,GARE PT DE SETE,11,LES BOUISSES,1,10:19:13,0,281,7261
268438832,GARESETE,11,GARE PT DE SETE,11,LES BOUISSES,1,10:22:32,0,480,7261
268438813,GARESETE,11,GARE PT DE SETE,11,LES BOUISSES,1,10:39:00,0,1468,7261
268438855,GOUARAA,7118,GOUARA,11,LES BOUISSES,1,10:15:24,0,52,7261
268438793,GOUARAA,7118,GOUARA,11,LES BOUISSES,1,10:19:14,0,282,7261
268438991,GOUARAA,7118,GOUARA,11,LES BOUISSES,1,10:31:15,0,1003,7261
268438991,HRENEE,8132,HENRI RENE,11,LES BOUISSES,1,10:18:10,0,218,7261
268438832,HRENEE,8132,HENRI RENE,11,LES BOUISSES,1,10:21:29,0,417,7261
268438813,HRENEE,8132,HENRI RENE,11,LES BOUISSES,1,10:37:57,0,1405,7261
268438813,INDUSTRE,3103,INDUSTRIE,11,LES BOUISSES,1,10:26:51,0,739,7261
268439001,INDUSTRE,3103,INDUSTRIE,11,LES BOUISSES,1,10:35:51,0,1279,7261
268438849,INDUSTRE,3103,INDUSTRIE,11,LES BOUISSES,1,10:45:51,0,1879,7261
268438991,IRISE,3111,IRIS,11,LES BOUISSES,1,10:15:08,0,36,7261
268438832,IRISE,3111,IRIS,11,LES BOUISSES,1,10:18:27,0,235,7261
268438813,IRISE,3111,IRIS,11,LES BOUISSES,1,10:34:55,0,1223,7261
268438793,LEPIC,7117,LEPIC,11,LES BOUISSES,1,10:18:33,0,241,7261
268438991,LEPIC,7117,LEPIC,11,LES BOUISSES,1,10:30:29,0,957,7261
268438832,LEPIC,7117,LEPIC,11,LES BOUISSES,1,10:33:31,0,1139,7261
268438855,ROSESR,4231,LES ROSES,11,LES BOUISSES,1,10:17:49,0,197,7261
268438793,ROSESR,4231,LES ROSES,11,LES BOUISSES,1,10:21:44,0,432,7261
268438991,ROSESR,4231,LES ROSES,11,LES BOUISSES,1,10:33:45,0,1153,7261
268438832,LUCULLUE,3109,LUCULLUS,11,LES BOUISSES,1,10:15:37,0,65,7261
268438813,LUCULLUE,3109,LUCULLUS,11,LES BOUISSES,1,10:32:45,0,1093,7261
268439001,LUCULLUE,3109,LUCULLUS,11,LES BOUISSES,1,10:41:45,0,1633,7261
268438813,MARGAREE,3104,MARCHE GARE,11,LES BOUISSES,1,10:28:00,0,808,7261
268439001,MARGAREE,3104,MARCHE GARE,11,LES BOUISSES,1,10:37:00,0,1348,7261
268438849,MARGAREE,3104,MARCHE GARE,11,LES BOUISSES,1,10:47:00,0,1948,7261
268438813,ARGELLIE,3106,MAS ARGELLIERS,11,LES BOUISSES,1,10:29:33,0,901,7261
268439001,ARGELLIE,3106,MAS ARGELLIERS,11,LES BOUISSES,1,10:38:33,0,1441,7261
268438849,ARGELLIE,3106,MAS ARGELLIERS,11,LES BOUISSES,1,10:48:33,0,2041,7261
268438813,MASSTPIA,3102,MAS SAINT-PIERRE,11,LES BOUISSES,1,10:26:00,0,688,7261
268439001,MASSTPIA,3102,MAS SAINT-PIERRE,11,LES BOUISSES,1,10:35:00,0,1228,7261
268438849,MASSTPIA,3102,MAS SAINT-PIERRE,11,LES BOUISSES,1,10:45:00,0,1828,7261
268438793,MYRTHESA,7116,MYRTES,11,LES BOUISSES,1,10:17:42,0,190,7261
268438991,MYRTHESA,7116,MYRTES,11,LES BOUISSES,1,10:29:43,0,911,7261
268438832,MYRTHESA,7116,MYRTES,11,LES BOUISSES,1,10:32:45,0,1093,7261
268438991,OBSERVSN,2133,OBSERVATOIRE,11,LES BOUISSES,1,10:24:13,0,581,7261
268438832,OBSERVSN,2133,OBSERVATOIRE,11,LES BOUISSES,1,10:27:32,0,780,7261
268438813,OBSERVSN,2133,OBSERVATOIRE,11,LES BOUISSES,1,10:44:00,0,1768,7261
268438793,PALISSAS,11224,PALISSADE,11,LES BOUISSES,1,10:14:53,0,21,7261
268438991,PALISSAS,11224,PALISSADE,11,LES BOUISSES,1,10:26:54,0,742,7261
268438832,PALISSAS,11224,PALISSADE,11,LES BOUISSES,1,10:29:56,0,924,7261
268438855,PASLOU6A,6101,PAS DU LOUP,11,LES BOUISSES,1,10:19:45,0,313,7261
268438793,PASLOU6A,6101,PAS DU LOUP,11,LES BOUISSES,1,10:24:29,0,597,7261
268438991,PASLOU6A,6101,PAS DU LOUP,11,LES BOUISSES,1,10:35:41,0,1269,7261
268438855,PFAJONS,4246,PAUL FAJON,11,LES BOUISSES,1,10:26:21,0,709,7261
268438793,PFAJONS,4246,PAUL FAJON,11,LES BOUISSES,1,10:30:11,0,939,7261
268438991,PFAJONS,4246,PAUL FAJON,11,LES BOUISSES,1,10:42:12,0,1660,7261
268438991,CARNOTE,8131,PLACE CARNOT,11,LES BOUISSES,1,10:17:28,0,176,7261
268438832,CARNOTE,8131,PLACE CARNOT,11,LES BOUISSES,1,10:20:30,0,358,7261
268438813,CARNOTE,8131,PLACE CARNOT,11,LES BOUISSES,1,10:37:15,0,1363,7261
268438855,ROUGETS,4103,ROUGET DE LISLE,11,LES BOUISSES,1,10:25:27,0,655,7261
268438793,ROUGETS,4103,ROUGET DE LISLE,11,LES BOUISSES,1,10:29:09,0,877,7261
268438991,ROUGETS,4103,ROUGET DE LISLE,11,LES BOUISSES,1,10:41:02,0,1590,7261
268438813,SAPORTAE,3105,SAPORTA,11,LES BOUISSES,1,10:28:50,0,858,7261
268439001,SAPORTAE,3105,SAPORTA,11,LES BOUISSES,1,10:37:50,0,1398,7261
268438849,SAPORTAE,3105,SAPORTA,11,LES BOUISSES,1,10:47:50,0,1998,7261
268438813,TOURNEZY,3101,TOURNEZY,11,LES BOUISSES,1,10:25:00,0,628,7261
268439001,TOURNEZY,3101,TOURNEZY,11,LES BOUISSES,1,10:34:00,0,1168,7261
268438849,TOURNEZY,3101,TOURNEZY,11,LES BOUISSES,1,10:44:00,0,1768,7261
268438954,GARE17,17,GARE SAINT-ROCH,11,PAUL FAJON,1,21:00:00,1,38728,4246
268438961,GARE17,17,GARE SAINT-ROCH,11,PAUL FAJON,1,21:30:00,1,40528,4246
268438956,GARE17,17,GARE SAINT-ROCH,11,PAUL FAJON,1,22:00:00,1,42328,4246
268438848,ANATOLEE,1236,ANATOLE FRANCE,11,TOURNEZY,0,10:17:30,0,178,3101
268438803,ANATOLEE,1236,ANATOLE FRANCE,11,TOURNEZY,0,10:26:16,0,704,3101
268438784,ANATOLEE,1236,ANATOLE FRANCE,11,TOURNEZY,0,10:35:24,0,1252,3101
268438803,ANTERRIE,4114,ANTERRIEU,11,TOURNEZY,0,10:19:56,0,324,3101
268438784,ANTERRIE,4114,ANTERRIEU,11,TOURNEZY,0,10:29:13,0,881,3101
268438823,ANTERRIE,4114,ANTERRIEU,11,TOURNEZY,0,10:39:13,0,1481,3101
268438784,BAGATELE,4142,BAGATELLE,11,TOURNEZY,0,10:18:23,0,231,3101
268438823,BAGATELE,4142,BAGATELLE,11,TOURNEZY,0,10:28:23,0,831,3101
268438856,BAGATELE,4142,BAGATELLE,11,TOURNEZY,0,10:38:36,0,1444,3101
268438803,CHASSEUA,4111,CHASSEURS,11,TOURNEZY,0,10:15:27,0,55,3101
268438784,CHASSEUA,4111,CHASSEURS,11,TOURNEZY,0,10:24:07,0,575,3101
268438823,CHASSEUA,4111,CHASSEURS,11,TOURNEZY,0,10:34:07,0,1175,3101
268438784,CHDUE,4239,CHENG-DU,11,TOURNEZY,0,10:17:47,0,195,3101
268438823,CHDUE,4239,CHENG-DU,11,TOURNEZY,0,10:27:47,0,795,3101
268438856,CHDUE,4239,CHENG-DU,11,TOURNEZY,0,10:38:12,0,1420,3101
268439000,CARMES,3220,CITE DE L'ARME,11,TOURNEZY,0,10:15:08,0,36,3101
268438848,CARMES,3220,CITE DE L'ARME,11,TOURNEZY,0,10:27:30,0,778,3101
268438803,CARMES,3220,CITE DE L'ARME,11,TOURNEZY,0,10:36:16,0,1304,3101
268438803,CITGELYE,11131,CITE GELY,11,TOURNEZY,0,10:15:52,0,80,3101
268438784,CITGELYE,11131,CITE GELY,11,TOURNEZY,0,10:25:00,0,628,3101
268438823,CITGELYE,11131,CITE GELY,11,TOURNEZY,0,10:35:00,0,1228,3101
268438848,CMIONS,3216,CITE MION,11,TOURNEZY,0,10:23:48,0,556,3101
268438803,CMIONS,3216,CITE MION,11,TOURNEZY,0,10:32:48,0,1096,3101
268438784,CMIONS,3216,CITE MION,11,TOURNEZY,0,10:41:56,0,1644,3101
268438784,CVALETTA,4109,CITE VALETTE,11,TOURNEZY,0,10:22:12,0,460,3101
268438823,CVALETTA,4109,CITE VALETTE,11,TOURNEZY,0,10:32:12,0,1060,3101
268438856,CVALETTA,4109,CITE VALETTE,11,TOURNEZY,0,10:42:13,0,1661,3101
268438784,MPAGNOLE,4143,COLLEGE PAGNOL,11,TOURNEZY,0,10:19:00,0,268,3101
268438823,MPAGNOLE,4143,COLLEGE PAGNOL,11,TOURNEZY,0,10:29:00,0,868,3101
268438856,MPAGNOLE,4143,COLLEGE PAGNOL,11,TOURNEZY,0,10:39:01,0,1469,3101
268438848,FFABREGS,3218,F. FABREGE,11,TOURNEZY,0,10:25:30,0,658,3101
268438803,FFABREGS,3218,F. FABREGE,11,TOURNEZY,0,10:33:52,0,1160,3101
268438784,FFABREGS,3218,F. FABREGE,11,TOURNEZY,0,10:43:00,0,1708,3101
268438848,BAZILLES,16206,FREDERIC BAZILLE,11,TOURNEZY,0,10:22:33,0,481,3101
268438803,BAZILLES,16206,FREDERIC BAZILLE,11,TOURNEZY,0,10:31:57,0,1045,3101
268438784,BAZILLES,16206,FREDERIC BAZILLE,11,TOURNEZY,0,10:40:41,0,1569,3101
268438803,GAMBETTE,1234,GAMBETTA,11,TOURNEZY,0,10:22:52,0,500,3101
268438784,GAMBETTE,1234,GAMBETTA,11,TOURNEZY,0,10:32:00,0,1048,3101
268438823,GAMBETTE,1234,GAMBETTA,11,TOURNEZY,0,10:42:00,0,1648,3101
268439000,GLORCAS,3221,GARCIA LORCA,11,TOURNEZY,0,10:17:05,0,153,3101
268438848,GLORCAS,3221,GARCIA LORCA,11,TOURNEZY,0,10:29:31,0,899,3101
268438803,GLORCAS,3221,GARCIA LORCA,11,TOURNEZY,0,10:37:53,0,1401,3101
268438848,GAREROUT,21,GARE PT DE SETE,11,TOURNEZY,0,10:22:30,0,478,3101
268438803,GAREROUT,21,GARE PT DE SETE,11,TOURNEZY,0,10:30:52,0,980,3101
268438784,GAREROUT,21,GARE PT DE SETE,11,TOURNEZY,0,10:40:00,0,1528,3101
268438848,GARE17,17,GARE SAINT-ROCH,11,TOURNEZY,0,10:20:30,0,358,3101
268438803,GARE17,17,GARE SAINT-ROCH,11,TOURNEZY,0,10:28:52,0,860,3101
268438784,GARE17,17,GARE SAINT-ROCH,11,TOURNEZY,0,10:38:00,0,1408,3101
268438803,GOUARAR,7213,GOUARA,11,TOURNEZY,0,10:17:24,0,172,3101
268438784,GOUARAR,7213,GOUARA,11,TOURNEZY,0,10:26:32,0,720,3101
268438823,GOUARAR,7213,GOUARA,11,TOURNEZY,0,10:36:32,0,1320,3101
268438812,INDUSTRS,3225,INDUSTRIE,11,TOURNEZY,0,10:16:42,0,130,3101
268439000,INDUSTRS,3225,INDUSTRIE,11,TOURNEZY,0,10:20:43,0,371,3101
268438848,INDUSTRS,3225,INDUSTRIE,11,TOURNEZY,0,10:32:50,0,1098,3101
268438848,IRISS,3217,IRIS,11,TOURNEZY,0,10:24:32,0,600,3101
268438803,IRISS,3217,IRIS,11,TOURNEZY,0,10:33:22,0,1130,3101
268438784,IRISS,3217,IRIS,11,TOURNEZY,0,10:42:30,0,1678,3101
268438803,LAFEUILE,11132,LAFEUILLADE,11,TOURNEZY,0,10:18:53,0,261,3101
268438784,LAFEUILE,11132,LAFEUILLADE,11,TOURNEZY,0,10:28:01,0,809,3101
268438823,LAFEUILE,11132,LAFEUILLADE,11,TOURNEZY,0,10:38:01,0,1409,3101
268438784,BOUISS4A,7165,LES BOUISSES,11,TOURNEZY,0,10:15:00,0,28,3101
268438823,BOUISS4A,7165,LES BOUISSES,11,TOURNEZY,0,10:25:00,0,628,3101
268438856,BOUISS4A,7165,LES BOUISSES,11,TOURNEZY,0,10:36:00,0,1288,3101
268438784,ROSESA,4110,LES ROSES,11,TOURNEZY,0,10:23:18,0,526,3101
268438823,ROSESA,4110,LES ROSES,11,TOURNEZY,0,10:33:18,0,1126,3101
268438856,ROSESA,4110,LES ROSES,11,TOURNEZY,0,10:43:19,0,1727,3101
268438848,LUCULLUS,3219,LUCULLUS,11,TOURNEZY,0,10:26:35,0,723,3101
268438803,LUCULLUS,3219,LUCULLUS,11,TOURNEZY,0,10:35:59,0,1287,3101
268438784,LUCULLUS,3219,LUCULLUS,11,TOURNEZY,0,10:44:43,0,1811,3101
268438812,MARGARES,3224,MARCHE GARE,11,TOURNEZY,0,10:15:40,0,68,3101
268439000,MARGARES,3224,MARCHE GARE,11,TOURNEZY,0,10:19:35,0,303,3101
268438848,MARGARES,3224,MARCHE GARE,11,TOURNEZY,0,10:31:42,0,1030,3101
268438812,ARGELLIS,3222,MAS ARGELLIERS,11,TOURNEZY,0,10:14:39,0,7,3101
268439000,ARGELLIS,3222,MAS ARGELLIERS,11,TOURNEZY,0,10:18:12,0,220,3101
268438848,ARGELLIS,3222,MAS ARGELLIERS,11,TOURNEZY,0,10:30:30,0,958,3101
268438812,MASSTPIR,3226,MAS SAINT-PIERRE,11,TOURNEZY,0,10:17:45,0,193,3101
268439000,MASSTPIR,3226,MAS SAINT-PIERRE,11,TOURNEZY,0,10:21:46,0,434,3101
268438848,MASSTPIR,3226,MAS SAINT-PIERRE,11,TOURNEZY,0,10:34:31,0,1199,3101
268438784,PASLOU6R,6221,PAS DU LOUP,11,TOURNEZY,0,10:20:58,0,386,3101
268438823,PASLOU6R,6221,PAS DU LOUP,11,TOURNEZY,0,10:30:58,0,986,3101
268438856,PASLOU6R,6221,PAS DU LOUP,11,TOURNEZY,0,10:40:59,0,1587,3101
268438784,PFAJONE,4139,PAUL FAJON,11,TOURNEZY,0,10:16:00,0,88,3101
268438823,PFAJONE,4139,PAUL FAJON,11,TOURNEZY,0,10:26:00,0,688,3101
268438856,PFAJONE,4139,PAUL FAJON,11,TOURNEZY,0,10:37:00,0,1348,3101
268438803,PLANCABE,15218,PLAN CABANES,11,TOURNEZY,0,10:22:27,0,475,3101
268438784,PLANCABE,15218,PLAN CABANES,11,TOURNEZY,0,10:31:07,0,995,3101
268438823,PLANCABE,15218,PLAN CABANES,11,TOURNEZY,0,10:41:07,0,1595,3101
268438784,ROUGETE,4238,ROUGET DE LISLE,11,TOURNEZY,0,10:16:28,0,116,3101
268438823,ROUGETE,4238,ROUGET DE LISLE,11,TOURNEZY,0,10:26:28,0,716,3101
268438856,ROUGETE,4238,ROUGET DE LISLE,11,TOURNEZY,0,10:37:19,0,1367,3101
268438848,STDENIE1,1235,SAINT-DENIS,11,TOURNEZY,0,10:15:30,0,58,3101
268438803,STDENIE1,1235,SAINT-DENIS,11,TOURNEZY,0,10:23:52,0,560,3101
268438784,STDENIE1,1235,SAINT-DENIS,11,TOURNEZY,0,10:33:00,0,1108,3101
268438812,SAPORTAS,3223,SAPORTA,11,TOURNEZY,0,10:15:39,0,67,3101
268439000,SAPORTAS,3223,SAPORTA,11,TOURNEZY,0,10:19:12,0,280,3101
268438848,SAPORTAS,3223,SAPORTA,11,TOURNEZY,0,10:31:30,0,1018,3101
268439040,CENTRAYR,12210,CENTRAYRARGUES,12,CATALPAS,1,10:20:00,0,328,12215
268439084,CENTRAYR,12210,CENTRAYRARGUES,12,CATALPAS,1,10:50:00,0,2128,12215
268439046,CENTRAYR,12210,CENTRAYRARGUES,12,CATALPAS,1,11:20:00,0,3928,12215
268439040,COQUELIC,12209,COQUELICOTS,12,CATALPAS,1,10:19:19,0,287,12215
268439084,COQUELIC,12209,COQUELICOTS,12,CATALPAS,1,10:49:19,0,2087,12215
268439046,COQUELIC,12209,COQUELICOTS,12,CATALPAS,1,11:19:19,0,3887,12215
268439040,DESCARTE,12211,DESCARTES,12,CATALPAS,1,10:20:43,0,371,12215
268439084,DESCARTE,12211,DESCARTES,12,CATALPAS,1,10:50:43,0,2171,12215
268439046,DESCARTE,12211,DESCARTES,12,CATALPAS,1,11:20:43,0,3971,12215
268439040,FPEYSSON,12206,FREDERIC PEYSON,12,CATALPAS,1,10:16:00,0,88,12215
268439084,FPEYSSON,12206,FREDERIC PEYSON,12,CATALPAS,1,10:46:00,0,1888,12215
268439046,FPEYSSON,12206,FREDERIC PEYSON,12,CATALPAS,1,11:16:00,0,3688,12215
268439040,GAREROUT,21,GARE PT DE SETE,12,CATALPAS,1,10:15:00,0,28,12215
268439084,GAREROUT,21,GARE PT DE SETE,12,CATALPAS,1,10:45:00,0,1828,12215
268439046,GAREROUT,21,GARE PT DE SETE,12,CATALPAS,1,11:15:00,0,3628,12215
268439040,VACHETS,12234,JEAN VACHET,12,CATALPAS,1,10:22:58,0,506,12215
268439084,VACHETS,12234,JEAN VACHET,12,CATALPAS,1,10:52:58,0,2306,12215
268439046,VACHETS,12234,JEAN VACHET,12,CATALPAS,1,11:22:58,0,4106,12215
268439040,LECLERCS,12231,MARECHAL LECLERC,12,CATALPAS,1,10:22:00,0,448,12215
268439084,LECLERCS,12231,MARECHAL LECLERC,12,CATALPAS,1,10:52:00,0,2248,12215
268439046,LECLERCS,12231,MARECHAL LECLERC,12,CATALPAS,1,11:22:00,0,4048,12215
268439040,PAQUERTR,12208,PAQUERETTES,12,CATALPAS,1,10:17:58,0,206,12215
268439084,PAQUERTR,12208,PAQUERETTES,12,CATALPAS,1,10:47:58,0,2006,12215
268439046,PAQUERTR,12208,PAQUERETTES,12,CATALPAS,1,11:17:58,0,3806,12215
268439040,PORTOR,12207,PORTO,12,CATALPAS,1,10:17:23,0,171,12215
268439084,PORTOR,12207,PORTO,12,CATALPAS,1,10:47:23,0,1971,12215
268439046,PORTOR,12207,PORTO,12,CATALPAS,1,11:17:23,0,3771,12215
268439040,RAZETEUR,12212,RAZETEURS,12,CATALPAS,1,10:21:19,0,407,12215
268439084,RAZETEUR,12212,RAZETEURS,12,CATALPAS,1,10:51:19,0,2207,12215
268439046,RAZETEUR,12212,RAZETEURS,12,CATALPAS,1,11:21:19,0,4007,12215
268439041,BELLEVUE,12108,BELLEVUE,12,GARE SAINT-ROCH,0,10:31:20,0,1008,11
268439085,BELLEVUE,12108,BELLEVUE,12,GARE SAINT-ROCH,0,11:01:20,0,2808,11
268439047,BELLEVUE,12108,BELLEVUE,12,GARE SAINT-ROCH,0,11:31:20,0,4608,11
268439041,CATALPAS,12215,CATALPAS,12,GARE SAINT-ROCH,0,10:28:00,0,808,11
268439085,CATALPAS,12215,CATALPAS,12,GARE SAINT-ROCH,0,10:58:00,0,2608,11
268439047,CATALPAS,12215,CATALPAS,12,GARE SAINT-ROCH,0,11:28:00,0,4408,11
268439041,HRENEE,8132,HENRI RENE,12,GARE SAINT-ROCH,0,10:36:24,0,1312,11
268439085,HRENEE,8132,HENRI RENE,12,GARE SAINT-ROCH,0,11:06:24,0,3112,11
268439047,HRENEE,8132,HENRI RENE,12,GARE SAINT-ROCH,0,11:36:24,0,4912,11
268439041,VACHETE,12134,JEAN VACHET,12,GARE SAINT-ROCH,0,10:28:34,0,842,11
268439085,VACHETE,12134,JEAN VACHET,12,GARE SAINT-ROCH,0,10:58:34,0,2642,11
268439047,VACHETE,12134,JEAN VACHET,12,GARE SAINT-ROCH,0,11:28:34,0,4442,11
268439041,LCORDES,12112,LEON CORDES,12,GARE SAINT-ROCH,0,10:34:40,0,1208,11
268439085,LCORDES,12112,LEON CORDES,12,GARE SAINT-ROCH,0,11:04:40,0,3008,11
268439047,LCORDES,12112,LEON CORDES,12,GARE SAINT-ROCH,0,11:34:40,0,4808,11
268439041,LECLERCA,12106,MARECHAL LECLERC,12,GARE SAINT-ROCH,0,10:30:00,0,928,11
268439085,LECLERCA,12106,MARECHAL LECLERC,12,GARE SAINT-ROCH,0,11:00:00,0,2728,11
268439047,LECLERCA,12106,MARECHAL LECLERC,12,GARE SAINT-ROCH,0,11:30:00,0,4528,11
268439041,PAQUEREA,12110,PAQUERETTES,12,GARE SAINT-ROCH,0,10:32:47,0,1095,11
268439085,PAQUEREA,12110,PAQUERETTES,12,GARE SAINT-ROCH,0,11:02:47,0,2895,11
268439047,PAQUEREA,12110,PAQUERETTES,12,GARE SAINT-ROCH,0,11:32:47,0,4695,11
268439041,CARNOTE,8131,PLACE CARNOT,12,GARE SAINT-ROCH,0,10:36:00,0,1288,11
268439085,CARNOTE,8131,PLACE CARNOT,12,GARE SAINT-ROCH,0,11:06:00,0,3088,11
268439047,CARNOTE,8131,PLACE CARNOT,12,GARE SAINT-ROCH,0,11:36:00,0,4888,11
268439041,PORTOA,12111,PORTO,12,GARE SAINT-ROCH,0,10:33:21,0,1129,11
268439085,PORTOA,12111,PORTO,12,GARE SAINT-ROCH,0,11:03:21,0,2929,11
268439047,PORTOA,12111,PORTO,12,GARE SAINT-ROCH,0,11:33:21,0,4729,11
268439041,PRIMEVER,12109,PRIMEVERES,12,GARE SAINT-ROCH,0,10:32:00,0,1048,11
268439085,PRIMEVER,12109,PRIMEVERES,12,GARE SAINT-ROCH,0,11:02:00,0,2848,11
268439047,PRIMEVER,12109,PRIMEVERES,12,GARE SAINT-ROCH,0,11:32:00,0,4648,11
268437879,CNEARC,5280,AGROPOLIS,13,SAINT-ELOI,0,10:20:32,0,360,13001
268439194,CNEARC,5280,AGROPOLIS,13,SAINT-ELOI,0,10:24:59,0,627,13001
268438668,CNEARC,5280,AGROPOLIS,13,SAINT-ELOI,0,10:32:59,0,1107,13001
268437879,VALMONLS,13204,CAMPUS AGROPOLIS,13,SAINT-ELOI,0,10:19:36,0,304,13001
268439194,VALMONLS,13204,CAMPUS AGROPOLIS,13,SAINT-ELOI,0,10:24:03,0,571,13001
268438668,VALMONLS,13204,CAMPUS AGROPOLIS,13,SAINT-ELOI,0,10:32:03,0,1051,13001
268439194,ARCHITEA,6119,ECOLE D'ARCHI.,13,SAINT-ELOI,0,10:18:24,0,232,13001
268438668,ARCHITEA,6119,ECOLE D'ARCHI.,13,SAINT-ELOI,0,10:26:24,0,712,13001
268439253,ARCHITEA,6119,ECOLE D'ARCHI.,13,SAINT-ELOI,0,10:34:24,0,1192,13001
268439194,BATAILLA,6116,EUGENE BATAILLON,13,SAINT-ELOI,0,10:16:27,0,115,13001
268438668,BATAILLA,6116,EUGENE BATAILLON,13,SAINT-ELOI,0,10:24:27,0,595,13001
268439253,BATAILLA,6116,EUGENE BATAILLON,13,SAINT-ELOI,0,10:32:27,0,1075,13001
268439415,FACLETTE,5207,FAC DE LETTRES,13,SAINT-ELOI,0,10:16:27,0,115,13001
268437879,FACLETTE,5207,FAC DE LETTRES,13,SAINT-ELOI,0,10:26:32,0,720,13001
268439194,FACLETTE,5207,FAC DE LETTRES,13,SAINT-ELOI,0,10:30:59,0,987,13001
268439194,GASCOGNA,6117,GASCOGNE,13,SAINT-ELOI,0,10:17:00,0,148,13001
268438668,GASCOGNA,6117,GASCOGNE,13,SAINT-ELOI,0,10:25:00,0,628,13001
268439253,GASCOGNA,6117,GASCOGNE,13,SAINT-ELOI,0,10:33:00,0,1108,13001
268439415,HDUNANTA,10110,HENRI DUNANT,13,SAINT-ELOI,0,10:19:16,0,284,13001
268437879,HDUNANTA,10110,HENRI DUNANT,13,SAINT-ELOI,0,10:29:35,0,903,13001
268439194,HDUNANTA,10110,HENRI DUNANT,13,SAINT-ELOI,0,10:34:02,0,1170,13001
268437879,HORTUSS,5133,HORTUS,13,SAINT-ELOI,0,10:17:34,0,182,13001
268439194,HORTUSS,5133,HORTUS,13,SAINT-ELOI,0,10:22:01,0,449,13001
268438668,HORTUSS,5133,HORTUS,13,SAINT-ELOI,0,10:30:01,0,929,13001
268437879,LAVALETE,5284,LAVALETTE,13,SAINT-ELOI,0,10:24:28,0,596,13001
268439194,LAVALETE,5284,LAVALETTE,13,SAINT-ELOI,0,10:28:46,0,854,13001
268438668,LAVALETE,5284,LAVALETTE,13,SAINT-ELOI,0,10:36:46,0,1334,13001
268437879,LYCAGRIS,13202,LYCEE F. BAZILLE,13,SAINT-ELOI,0,10:18:32,0,240,13001
268439194,LYCAGRIS,13202,LYCEE F. BAZILLE,13,SAINT-ELOI,0,10:22:59,0,507,13001
268438668,LYCAGRIS,13202,LYCEE F. BAZILLE,13,SAINT-ELOI,0,10:30:59,0,987,13001
268437879,CHAUVETA,6120,MAURICE CHAUVET,13,SAINT-ELOI,0,10:14:42,0,10,13001
268439194,CHAUVETA,6120,MAURICE CHAUVET,13,SAINT-ELOI,0,10:19:09,0,277,13001
268438668,CHAUVETA,6120,MAURICE CHAUVET,13,SAINT-ELOI,0,10:27:09,0,757,13001
268437879,PICSTLOA,6121,PIC SAINT-LOUP,13,SAINT-ELOI,0,10:15:28,0,56,13001
268439194,PICSTLOA,6121,PIC SAINT-LOUP,13,SAINT-ELOI,0,10:19:43,0,311,13001
268438668,PICSTLOA,6121,PIC SAINT-LOUP,13,SAINT-ELOI,0,10:27:43,0,791,13001
268437879,SEIGNEUS,6123,PLAN 4 SEIGNEURS,13,SAINT-ELOI,0,10:16:32,0,120,13001
268439194,SEIGNEUS,6123,PLAN 4 SEIGNEURS,13,SAINT-ELOI,0,10:20:59,0,387,13001
268438668,SEIGNEUS,6123,PLAN 4 SEIGNEURS,13,SAINT-ELOI,0,10:28:59,0,867,13001
268439194,UNIVERSA,6115,UNIVERSITES,13,SAINT-ELOI,0,10:16:00,0,88,13001
268438668,UNIVERSA,6115,UNIVERSITES,13,SAINT-ELOI,0,10:24:00,0,568,13001
268439253,UNIVERSA,6115,UNIVERSITES,13,SAINT-ELOI,0,10:32:00,0,1048,13001
268439415,VERTBOIE,5206,VERT-BOIS,13,SAINT-ELOI,0,10:15:27,0,55,13001
268437879,VERTBOIE,5206,VERT-BOIS,13,SAINT-ELOI,0,10:25:32,0,660,13001
268439194,VERTBOIE,5206,VERT-BOIS,13,SAINT-ELOI,0,10:29:59,0,927,13001
268437879,ZOOE,5283,ZOO,13,SAINT-ELOI,0,10:23:19,0,527,13001
268439194,ZOOE,5283,ZOO,13,SAINT-ELOI,0,10:27:25,0,773,13001
268438668,ZOOE,5283,ZOO,13,SAINT-ELOI,0,10:35:25,0,1253,13001
268439426,CNEARCT,5281,AGROPOLIS,13,UNIVERSITES,1,10:16:46,0,134,6207
268439265,CNEARCT,5281,AGROPOLIS,13,UNIVERSITES,1,10:24:01,0,569,6207
268439416,CNEARCT,5281,AGROPOLIS,13,UNIVERSITES,1,10:32:01,0,1049,6207
268439426,VALMONTS,13203,CAMPUS AGROPOLIS,13,UNIVERSITES,1,10:14:46,0,14,6207
268439265,VALMONTS,13203,CAMPUS AGROPOLIS,13,UNIVERSITES,1,10:22:01,0,449,6207
268439416,VALMONTS,13203,CAMPUS AGROPOLIS,13,UNIVERSITES,1,10:30:01,0,929,6207
268439252,ARCHITER,6204,ECOLE D'ARCHI.,13,UNIVERSITES,1,10:16:36,0,124,6207
268439426,ARCHITER,6204,ECOLE D'ARCHI.,13,UNIVERSITES,1,10:22:39,0,487,6207
268439265,ARCHITER,6204,ECOLE D'ARCHI.,13,UNIVERSITES,1,10:29:54,0,922,6207
268439252,BATAILLR,6206,EUGENE BATAILLON,13,UNIVERSITES,1,10:19:49,0,317,6207
268439426,BATAILLR,6206,EUGENE BATAILLON,13,UNIVERSITES,1,10:25:34,0,662,6207
268439265,BATAILLR,6206,EUGENE BATAILLON,13,UNIVERSITES,1,10:33:07,0,1115,6207
268439265,FACLETTS,5124,FAC DE LETTRES,13,UNIVERSITES,1,10:18:00,0,208,6207
268439416,FACLETTS,5124,FAC DE LETTRES,13,UNIVERSITES,1,10:26:00,0,688,6207
268437880,FACLETTS,5124,FAC DE LETTRES,13,UNIVERSITES,1,10:34:00,0,1168,6207
268439252,GASCOGNR,6205,GASCOGNE,13,UNIVERSITES,1,10:17:43,0,191,6207
268439426,GASCOGNR,6205,GASCOGNE,13,UNIVERSITES,1,10:23:46,0,554,6207
268439265,GASCOGNR,6205,GASCOGNE,13,UNIVERSITES,1,10:31:01,0,989,6207
268439426,HORTUSE,5230,HORTUS,13,UNIVERSITES,1,10:19:38,0,306,6207
268439265,HORTUSE,5230,HORTUS,13,UNIVERSITES,1,10:26:32,0,720,6207
268439416,HORTUSE,5230,HORTUS,13,UNIVERSITES,1,10:34:32,0,1200,6207
268439265,LAVALETS,5161,LAVALETTE,13,UNIVERSITES,1,10:20:25,0,353,6207
268439416,LAVALETS,5161,LAVALETTE,13,UNIVERSITES,1,10:28:25,0,833,6207
268437880,LAVALETS,5161,LAVALETTE,13,UNIVERSITES,1,10:36:25,0,1313,6207
268439426,LYCAGRIE,13102,LYCEE F. BAZILLE,13,UNIVERSITES,1,10:18:46,0,254,6207
268439265,LYCAGRIE,13102,LYCEE F. BAZILLE,13,UNIVERSITES,1,10:26:01,0,689,6207
268439416,LYCAGRIE,13102,LYCEE F. BAZILLE,13,UNIVERSITES,1,10:34:01,0,1169,6207
268439252,CHAUVETR,6203,MAURICE CHAUVET,13,UNIVERSITES,1,10:15:43,0,71,6207
268439426,CHAUVETR,6203,MAURICE CHAUVET,13,UNIVERSITES,1,10:21:46,0,434,6207
268439265,CHAUVETR,6203,MAURICE CHAUVET,13,UNIVERSITES,1,10:29:01,0,869,6207
268439252,PICSTLOR,6202,PIC SAINT-LOUP,13,UNIVERSITES,1,10:15:01,0,29,6207
268439426,PICSTLOR,6202,PIC SAINT-LOUP,13,UNIVERSITES,1,10:20:46,0,374,6207
268439265,PICSTLOR,6202,PIC SAINT-LOUP,13,UNIVERSITES,1,10:28:19,0,827,6207
268439426,P4SEIG23,23232,PLAN 4 SEIGNEURS,13,UNIVERSITES,1,10:20:07,0,335,6207
268439265,P4SEIG23,23232,PLAN 4 SEIGNEURS,13,UNIVERSITES,1,10:27:01,0,749,6207
268439416,P4SEIG23,23232,PLAN 4 SEIGNEURS,13,UNIVERSITES,1,10:35:01,0,1229,6207
268439265,STELOINR,13001,SAINT-ELOI,13,UNIVERSITES,1,10:16:00,0,88,6207
268439416,STELOINR,13001,SAINT-ELOI,13,UNIVERSITES,1,10:24:00,0,568,6207
268437880,STELOINR,13001,SAINT-ELOI,13,UNIVERSITES,1,10:32:00,0,1048,6207
268439265,VERTBOIS,5125,VERT-BOIS,13,UNIVERSITES,1,10:20:00,0,328,6207
268439416,VERTBOIS,5125,VERT-BOIS,13,UNIVERSITES,1,10:28:00,0,808,6207
268437880,VERTBOIS,5125,VERT-BOIS,13,UNIVERSITES,1,10:36:00,0,1288,6207
268439265,ZOOS,5162,ZOO,13,UNIVERSITES,1,10:21:06,0,394,6207
268439416,ZOOS,5162,ZOO,13,UNIVERSITES,1,10:29:06,0,874,6207
268437880,ZOOS,5162,ZOO,13,UNIVERSITES,1,10:37:06,0,1354,6207
268439461,BDSPORTR,8211,BD DES SPORTS,14,LEON BLUM,1,10:31:27,0,1015,9234
268439484,BDSPORTR,8211,BD DES SPORTS,14,LEON BLUM,1,10:51:27,0,2215,9234
268439463,BDSPORTR,8211,BD DES SPORTS,14,LEON BLUM,1,11:11:27,0,3415,9234
268439461,ERENANR,8214,ERNEST RENAN,14,LEON BLUM,1,10:33:34,0,1142,9234
268439484,ERENANR,8214,ERNEST RENAN,14,LEON BLUM,1,10:53:34,0,2342,9234
268439463,ERENANR,8214,ERNEST RENAN,14,LEON BLUM,1,11:13:34,0,3542,9234
268439461,ESTRAGOR,8212,ESTRAGON,14,LEON BLUM,1,10:32:00,0,1048,9234
268439484,ESTRAGOR,8212,ESTRAGON,14,LEON BLUM,1,10:52:00,0,2248,9234
268439463,ESTRAGOR,8212,ESTRAGON,14,LEON BLUM,1,11:12:00,0,3448,9234
268439461,FOYERAUR,8206,FOYER DES AUBES,14,LEON BLUM,1,10:27:54,0,802,9234
268439484,FOYERAUR,8206,FOYER DES AUBES,14,LEON BLUM,1,10:47:54,0,2002,9234
268439463,FOYERAUR,8206,FOYER DES AUBES,14,LEON BLUM,1,11:07:54,0,3202,9234
268439461,FRANCOIR,8210,FRANCOISE,14,LEON BLUM,1,10:30:53,0,981,9234
268439484,FRANCOIR,8210,FRANCOISE,14,LEON BLUM,1,10:50:53,0,2181,9234
268439463,FRANCOIR,8210,FRANCOISE,14,LEON BLUM,1,11:10:53,0,3381,9234
268439461,GARIGLIR,8205,GARIGLIANO,14,LEON BLUM,1,10:27:00,0,748,9234
268439484,GARIGLIR,8205,GARIGLIANO,14,LEON BLUM,1,10:47:00,0,1948,9234
268439463,GARIGLIR,8205,GARIGLIANO,14,LEON BLUM,1,11:07:00,0,3148,9234
268439461,AUBES14E,14209,LES AUBES,14,LEON BLUM,1,10:35:01,0,1229,9234
268439484,AUBES14E,14209,LES AUBES,14,LEON BLUM,1,10:55:01,0,2429,9234
268439463,AUBES14E,14209,LES AUBES,14,LEON BLUM,1,11:15:01,0,3629,9234
268439461,PALOMBER,8208,PALOMBES,14,LEON BLUM,1,10:28:46,0,854,9234
268439484,PALOMBER,8208,PALOMBES,14,LEON BLUM,1,10:48:46,0,2054,9234
268439463,PALOMBER,8208,PALOMBES,14,LEON BLUM,1,11:08:46,0,3254,9234
268439461,PINSONSR,8213,PINSONS,14,LEON BLUM,1,10:32:41,0,1089,9234
268439484,PINSONSR,8213,PINSONS,14,LEON BLUM,1,10:52:41,0,2289,9234
268439463,PINSONSR,8213,PINSONS,14,LEON BLUM,1,11:12:41,0,3489,9234
268439461,LESLACSR,8203,POMPIGNANE- LACS,14,LEON BLUM,1,10:25:00,0,628,9234
268439484,LESLACSR,8203,POMPIGNANE- LACS,14,LEON BLUM,1,10:45:00,0,1828,9234
268439463,LESLACSR,8203,POMPIGNANE- LACS,14,LEON BLUM,1,11:05:00,0,3028,9234
268439461,STMAUR14,14106,SAINT-MAUR,14,LEON BLUM,1,10:30:00,0,928,9234
268439484,STMAUR14,14106,SAINT-MAUR,14,LEON BLUM,1,10:50:00,0,2128,9234
268439463,STMAUR14,14106,SAINT-MAUR,14,LEON BLUM,1,11:10:00,0,3328,9234
268439461,SALAISOR,8204,SALAISON,14,LEON BLUM,1,10:25:20,0,648,9234
268439484,SALAISOR,8204,SALAISON,14,LEON BLUM,1,10:45:20,0,1848,9234
268439463,SALAISOR,8204,SALAISON,14,LEON BLUM,1,11:05:20,0,3048,9234
268439483,BDSPORTA,8113,BD DES SPORTS,14,POMPIGNANE - LACS,0,10:30:57,0,985,10149
268439462,BDSPORTA,8113,BD DES SPORTS,14,POMPIGNANE - LACS,0,10:50:57,0,2185,10149
268439485,BDSPORTA,8113,BD DES SPORTS,14,POMPIGNANE - LACS,0,11:10:57,0,3385,10149
268439483,ERENANA,8110,ERNEST RENAN,14,POMPIGNANE - LACS,0,10:29:08,0,876,10149
268439462,ERENANA,8110,ERNEST RENAN,14,POMPIGNANE - LACS,0,10:49:08,0,2076,10149
268439485,ERENANA,8110,ERNEST RENAN,14,POMPIGNANE - LACS,0,11:09:08,0,3276,10149
268439483,ESTRAGOA,8112,ESTRAGON,14,POMPIGNANE - LACS,0,10:30:26,0,954,10149
268439462,ESTRAGOA,8112,ESTRAGON,14,POMPIGNANE - LACS,0,10:50:26,0,2154,10149
268439485,ESTRAGOA,8112,ESTRAGON,14,POMPIGNANE - LACS,0,11:10:26,0,3354,10149
268439483,FOYERAUA,8118,FOYER DES AUBES,14,POMPIGNANE - LACS,0,10:33:52,0,1160,10149
268439462,FOYERAUA,8118,FOYER DES AUBES,14,POMPIGNANE - LACS,0,10:53:52,0,2360,10149
268439485,FOYERAUA,8118,FOYER DES AUBES,14,POMPIGNANE - LACS,0,11:13:52,0,3560,10149
268439483,FRANC14A,14110,FRANCOISE,14,POMPIGNANE - LACS,0,10:31:17,0,1005,10149
268439462,FRANC14A,14110,FRANCOISE,14,POMPIGNANE - LACS,0,10:51:17,0,2205,10149
268439485,FRANC14A,14110,FRANCOISE,14,POMPIGNANE - LACS,0,11:11:17,0,3405,10149
268439460,GARIGLIA,8119,GARIGLIANO,14,POMPIGNANE - LACS,0,10:15:08,0,36,10149
268439483,GARIGLIA,8119,GARIGLIANO,14,POMPIGNANE - LACS,0,10:35:00,0,1228,10149
268439462,GARIGLIA,8119,GARIGLIANO,14,POMPIGNANE - LACS,0,10:55:00,0,2428,10149
268439483,MERMOZS,4116,JEAN MERMOZ,14,POMPIGNANE - LACS,0,10:27:24,0,772,10149
268439462,MERMOZS,4116,JEAN MERMOZ,14,POMPIGNANE - LACS,0,10:47:24,0,1972,10149
268439485,MERMOZS,4116,JEAN MERMOZ,14,POMPIGNANE - LACS,0,11:07:24,0,3172,10149
268439483,LBLUM9R,9234,LEON BLUM,14,POMPIGNANE - LACS,0,10:25:00,0,628,10149
268439462,LBLUM9R,9234,LEON BLUM,14,POMPIGNANE - LACS,0,10:45:00,0,1828,10149
268439485,LBLUM9R,9234,LEON BLUM,14,POMPIGNANE - LACS,0,11:05:00,0,3028,10149
268439483,AUBES14S,14109,LES AUBES,14,POMPIGNANE - LACS,0,10:28:00,0,808,10149
268439462,AUBES14S,14109,LES AUBES,14,POMPIGNANE - LACS,0,10:48:00,0,2008,10149
268439485,AUBES14S,14109,LES AUBES,14,POMPIGNANE - LACS,0,11:08:00,0,3208,10149
268439483,PALOMBEA,8116,PALOMBES,14,POMPIGNANE - LACS,0,10:33:06,0,1114,10149
268439462,PALOMBEA,8116,PALOMBES,14,POMPIGNANE - LACS,0,10:53:06,0,2314,10149
268439485,PALOMBEA,8116,PALOMBES,14,POMPIGNANE - LACS,0,11:13:06,0,3514,10149
268439483,PINSONSA,8111,PINSONS,14,POMPIGNANE - LACS,0,10:29:45,0,913,10149
268439462,PINSONSA,8111,PINSONS,14,POMPIGNANE - LACS,0,10:49:45,0,2113,10149
268439485,PINSONSA,8111,PINSONS,14,POMPIGNANE - LACS,0,11:09:45,0,3313,10149
268439483,STMAU14A,14111,SAINT-MAUR,14,POMPIGNANE - LACS,0,10:32:00,0,1048,10149
268439462,STMAU14A,14111,SAINT-MAUR,14,POMPIGNANE - LACS,0,10:52:00,0,2248,10149
268439485,STMAU14A,14111,SAINT-MAUR,14,POMPIGNANE - LACS,0,11:12:00,0,3448,10149
268439460,SALAISOA,8120,SALAISON,14,POMPIGNANE - LACS,0,10:17:08,0,156,10149
268439483,SALAISOA,8120,SALAISON,14,POMPIGNANE - LACS,0,10:37:00,0,1348,10149
268439462,SALAISOA,8120,SALAISON,14,POMPIGNANE - LACS,0,10:57:00,0,2548,10149
268439624,AIGUE05S,5236,AIGUELONGUE,15,CHARLES DE GAULLE,1,10:16:24,0,112,10246
268439599,AIGUE05S,5236,AIGUELONGUE,15,CHARLES DE GAULLE,1,10:25:12,0,640,10246
268439610,AIGUE05S,5236,AIGUELONGUE,15,CHARLES DE GAULLE,1,10:43:33,0,1741,10246
268439610,BELVEDEE,9109,BELVEDERE,15,CHARLES DE GAULLE,1,10:27:48,0,796,10246
268439551,BELVEDEE,9109,BELVEDERE,15,CHARLES DE GAULLE,1,10:38:15,0,1423,10246
268439618,BELVEDEE,9109,BELVEDERE,15,CHARLES DE GAULLE,1,10:56:36,0,2524,10246
268439624,BENGALIR,10215,BENGALIS,15,CHARLES DE GAULLE,1,10:17:19,0,167,10246
268439599,BENGALIR,10215,BENGALIS,15,CHARLES DE GAULLE,1,10:25:29,0,657,10246
268439610,BENGALIR,10215,BENGALIS,15,CHARLES DE GAULLE,1,10:45:08,0,1836,10246
268439551,BUGARELR,10256,BUGAREL,15,CHARLES DE GAULLE,1,10:24:04,0,572,10246
268439618,BUGARELR,10256,BUGAREL,15,CHARLES DE GAULLE,1,10:42:01,0,1649,10246
268439575,BUGARELR,10256,BUGAREL,15,CHARLES DE GAULLE,1,10:57:01,0,2549,10246
268439618,CASTELLS,5228,CASTELLE,15,CHARLES DE GAULLE,1,10:25:14,0,642,10246
268439575,CASTELLS,5228,CASTELLE,15,CHARLES DE GAULLE,1,10:40:14,0,1542,10246
268439551,CHDUS,4102,CHENG-DU,15,CHARLES DE GAULLE,1,10:25:08,0,636,10246
268439618,CHDUS,4102,CHENG-DU,15,CHARLES DE GAULLE,1,10:43:05,0,1713,10246
268439575,CHDUS,4102,CHENG-DU,15,CHARLES DE GAULLE,1,10:58:05,0,2613,10246
268439610,CINSAULR,3207,CINSAULTS,15,CHARLES DE GAULLE,1,10:33:54,0,1162,10246
268439551,CINSAULR,3207,CINSAULTS,15,CHARLES DE GAULLE,1,10:44:21,0,1789,10246
268439618,CINSAULR,3207,CINSAULTS,15,CHARLES DE GAULLE,1,11:02:42,0,2890,10246
268439618,DEMETERS,12228,DEMETER,15,CHARLES DE GAULLE,1,10:26:10,0,698,10246
268439575,DEMETERS,12228,DEMETER,15,CHARLES DE GAULLE,1,10:41:10,0,1598,10246
268439618,BUGATTIS,10232,ETTORE BUGATTI,15,CHARLES DE GAULLE,1,10:29:32,0,900,10246
268439575,BUGATTIS,10232,ETTORE BUGATTI,15,CHARLES DE GAULLE,1,10:44:32,0,1800,10246
268439635,BUGATTIS,10232,ETTORE BUGATTI,15,CHARLES DE GAULLE,1,10:59:32,0,2700,10246
268439599,PHARMACR,10224,FAC DE PHARMACIE,15,CHARLES DE GAULLE,1,10:18:09,0,217,10246
268439610,PHARMACR,10224,FAC DE PHARMACIE,15,CHARLES DE GAULLE,1,10:37:19,0,1367,10246
268439551,PHARMACR,10224,FAC DE PHARMACIE,15,CHARLES DE GAULLE,1,10:48:15,0,2023,10246
268439599,HDUNANTR,10210,HENRI DUNANT,15,CHARLES DE GAULLE,1,10:20:14,0,342,10246
268439610,HDUNANTR,10210,HENRI DUNANT,15,CHARLES DE GAULLE,1,10:39:53,0,1521,10246
268439551,HDUNANTR,10210,HENRI DUNANT,15,CHARLES DE GAULLE,1,10:50:20,0,2148,10246
268439610,HENRIMAR,3206,HENRI MARES,15,CHARLES DE GAULLE,1,10:32:48,0,1096,10246
268439551,HENRIMAR,3206,HENRI MARES,15,CHARLES DE GAULLE,1,10:43:15,0,1723,10246
268439618,HENRIMAR,3206,HENRI MARES,15,CHARLES DE GAULLE,1,11:01:36,0,2824,10246
268439618,JASMAURE,10254,JASSE DE MAURIN,15,CHARLES DE GAULLE,1,10:31:07,0,995,10246
268439575,JASMAURE,10254,JASSE DE MAURIN,15,CHARLES DE GAULLE,1,10:46:07,0,1895,10246
268439635,JASMAURE,10254,JASSE DE MAURIN,15,CHARLES DE GAULLE,1,11:01:07,0,2795,10246
268439610,CALVINR,10205,JEAN CALVIN,15,CHARLES DE GAULLE,1,10:29:14,0,882,10246
268439551,CALVINR,10205,JEAN CALVIN,15,CHARLES DE GAULLE,1,10:40:04,0,1532,10246
268439618,CALVINR,10205,JEAN CALVIN,15,CHARLES DE GAULLE,1,10:58:01,0,2609,10246
268439618,GAROS10R,10260,JEUNE PARQUE,15,CHARLES DE GAULLE,1,10:27:28,0,776,10246
268439575,GAROS10R,10260,JEUNE PARQUE,15,CHARLES DE GAULLE,1,10:42:28,0,1676,10246
268439551,GRANDMR,10244,LE GRAND M,15,CHARLES DE GAULLE,1,10:20:23,0,351,10246
268439618,GRANDMR,10244,LE GRAND M,15,CHARLES DE GAULLE,1,10:38:44,0,1452,10246
268439575,GRANDMR,10244,LE GRAND M,15,CHARLES DE GAULLE,1,10:53:44,0,2352,10246
268439610,BOUISS15,15261,LES BOUISSES,15,CHARLES DE GAULLE,1,10:17:32,0,180,10246
268439551,BOUISS15,15261,LES BOUISSES,15,CHARLES DE GAULLE,1,10:29:03,0,871,10246
268439618,BOUISS15,15261,LES BOUISSES,15,CHARLES DE GAULLE,1,10:47:00,0,1948,10246
268439618,LESPINSS,27114,LES PINS,15,CHARLES DE GAULLE,1,10:24:00,0,568,10246
268439575,LESPINSS,27114,LES PINS,15,CHARLES DE GAULLE,1,10:39:00,0,1468,10246
268439610,LOUISRAR,3205,LOUIS RAVAZ,15,CHARLES DE GAULLE,1,10:32:04,0,1052,10246
268439551,LOUISRAR,3205,LOUIS RAVAZ,15,CHARLES DE GAULLE,1,10:42:22,0,1670,10246
268439618,LOUISRAR,3205,LOUIS RAVAZ,15,CHARLES DE GAULLE,1,11:00:43,0,2771,10246
268439610,COLLINER,7207,LYCEE J. FERRY,15,CHARLES DE GAULLE,1,10:22:18,0,466,10246
268439551,COLLINER,7207,LYCEE J. FERRY,15,CHARLES DE GAULLE,1,10:33:14,0,1122,10246
268439618,COLLINER,7207,LYCEE J. FERRY,15,CHARLES DE GAULLE,1,10:51:11,0,2199,10246
268439624,CHEVALIR,10217,M. CHEVALIER,15,CHARLES DE GAULLE,1,10:19:23,0,291,10246
268439599,CHEVALIR,10217,M. CHEVALIER,15,CHARLES DE GAULLE,1,10:28:11,0,819,10246
268439610,CHEVALIR,10217,M. CHEVALIER,15,CHARLES DE GAULLE,1,10:46:32,0,1920,10246
268439599,FLANDRER,10211,MAJOR FLANDRE,15,CHARLES DE GAULLE,1,10:22:10,0,458,10246
268439610,FLANDRER,10211,MAJOR FLANDRE,15,CHARLES DE GAULLE,1,10:41:18,0,1606,10246
268439551,FLANDRER,10211,MAJOR FLANDRE,15,CHARLES DE GAULLE,1,10:52:14,0,2262,10246
268439610,MARTELIR,7206,MARTELLIERE,15,CHARLES DE GAULLE,1,10:20:32,0,360,10246
268439551,MARTELIR,7206,MARTELLIERE,15,CHARLES DE GAULLE,1,10:32:03,0,1051,10246
268439618,MARTELIR,7206,MARTELLIERE,15,CHARLES DE GAULLE,1,10:50:00,0,2128,10246
268439551,BAGNERER,10253,MAS DE BAGNERES,15,CHARLES DE GAULLE,1,10:18:16,0,224,10246
268439618,BAGNERER,10253,MAS DE BAGNERES,15,CHARLES DE GAULLE,1,10:36:37,0,1325,10246
268439575,BAGNERER,10253,MAS DE BAGNERES,15,CHARLES DE GAULLE,1,10:51:37,0,2225,10246
268439610,ORMEAUXR,7262,ORMEAUX,15,CHARLES DE GAULLE,1,10:19:25,0,293,10246
268439551,ORMEAUXR,7262,ORMEAUX,15,CHARLES DE GAULLE,1,10:30:21,0,949,10246
268439618,ORMEAUXR,7262,ORMEAUX,15,CHARLES DE GAULLE,1,10:48:18,0,2026,10246
268439618,PASSERIS,27115,PASSERINES,15,CHARLES DE GAULLE,1,10:24:35,0,603,10246
268439575,PASSERIS,27115,PASSERINES,15,CHARLES DE GAULLE,1,10:39:35,0,1503,10246
268439618,LUMUMBAS,10242,PATRICE LUMUMBA,15,CHARLES DE GAULLE,1,10:30:18,0,946,10246
268439575,LUMUMBAS,10242,PATRICE LUMUMBA,15,CHARLES DE GAULLE,1,10:45:18,0,1846,10246
268439635,LUMUMBAS,10242,PATRICE LUMUMBA,15,CHARLES DE GAULLE,1,11:00:18,0,2746,10246
268439610,PFAJONS,4246,PAUL FAJON,15,CHARLES DE GAULLE,1,10:16:29,0,117,10246
268439551,PFAJONS,4246,PAUL FAJON,15,CHARLES DE GAULLE,1,10:27:28,0,776,10246
268439618,PFAJONS,4246,PAUL FAJON,15,CHARLES DE GAULLE,1,10:45:25,0,1853,10246
268439610,RIEGESR,10206,RIEGES,15,CHARLES DE GAULLE,1,10:30:42,0,970,10246
268439551,RIEGESR,10206,RIEGES,15,CHARLES DE GAULLE,1,10:41:09,0,1597,10246
268439618,RIEGESR,10206,RIEGES,15,CHARLES DE GAULLE,1,10:59:30,0,2698,10246
268439624,ROQUETUR,10216,ROQUETURIERE,15,CHARLES DE GAULLE,1,10:18:35,0,243,10246
268439599,ROQUETUR,10216,ROQUETURIERE,15,CHARLES DE GAULLE,1,10:27:11,0,759,10246
268439610,ROQUETUR,10216,ROQUETURIERE,15,CHARLES DE GAULLE,1,10:46:19,0,1907,10246
268439610,ROUGETS,4103,ROUGET DE LISLE,15,CHARLES DE GAULLE,1,10:15:41,0,69,10246
268439551,ROUGETS,4103,ROUGET DE LISLE,15,CHARLES DE GAULLE,1,10:26:08,0,696,10246
268439618,ROUGETS,4103,ROUGET DE LISLE,15,CHARLES DE GAULLE,1,10:44:29,0,1797,10246
268439551,SABINR,10243,SABINES,15,CHARLES DE GAULLE,1,10:17:03,0,151,10246
268439618,SABINR,10243,SABINES,15,CHARLES DE GAULLE,1,10:35:00,0,1228,10246
268439575,SABINR,10243,SABINES,15,CHARLES DE GAULLE,1,10:50:00,0,2128,10246
268439618,STCLEOPS,12230,SAINT-CLEOPHAS,15,CHARLES DE GAULLE,1,10:23:00,0,508,10246
268439575,STCLEOPS,12230,SAINT-CLEOPHAS,15,CHARLES DE GAULLE,1,10:38:00,0,1408,10246
268439599,STELOIR2,10223,SAINT-ELOI,15,CHARLES DE GAULLE,1,10:20:12,0,340,10246
268439610,STELOIR2,10223,SAINT-ELOI,15,CHARLES DE GAULLE,1,10:38:33,0,1441,10246
268439551,STELOIR2,10223,SAINT-ELOI,15,CHARLES DE GAULLE,1,10:50:04,0,2132,10246
268439624,STLAZARR,10245,SAINT-LAZARE,15,CHARLES DE GAULLE,1,10:19:50,0,318,10246
268439599,STLAZARR,10245,SAINT-LAZARE,15,CHARLES DE GAULLE,1,10:28:08,0,816,10246
268439610,STLAZARR,10245,SAINT-LAZARE,15,CHARLES DE GAULLE,1,10:47:47,0,1995,10246
268439599,STECATHR,10212,SAINTE-CATHERINE,15,CHARLES DE GAULLE,1,10:22:28,0,476,10246
268439610,STECATHR,10212,SAINTE-CATHERINE,15,CHARLES DE GAULLE,1,10:42:07,0,1655,10246
268439551,STECATHR,10212,SAINTE-CATHERINE,15,CHARLES DE GAULLE,1,10:53:26,0,2334,10246
268439610,SGERMAIR,7263,SOPHIE GERMAIN,15,CHARLES DE GAULLE,1,10:20:29,0,357,10246
268439551,SGERMAIR,7263,SOPHIE GERMAIN,15,CHARLES DE GAULLE,1,10:31:11,0,999,10246
268439618,SGERMAIR,7263,SOPHIE GERMAIN,15,CHARLES DE GAULLE,1,10:49:08,0,2076,10246
268439618,TAMS,12227,TAM,15,CHARLES DE GAULLE,1,10:27:00,0,748,10246
268439575,TAMS,12227,TAM,15,CHARLES DE GAULLE,1,10:42:00,0,1648,10246
268439610,TONNELRR,10231,TONNELLES,15,CHARLES DE GAULLE,1,10:25:42,0,670,10246
268439551,TONNELRR,10231,TONNELLES,15,CHARLES DE GAULLE,1,10:36:09,0,1297,10246
268439618,TONNELRR,10231,TONNELLES,15,CHARLES DE GAULLE,1,10:54:30,0,2398,10246
268439624,TOURTERR,10213,TOURTERELLES,15,CHARLES DE GAULLE,1,10:14:49,0,17,10246
268439599,TOURTERR,10213,TOURTERELLES,15,CHARLES DE GAULLE,1,10:23:07,0,515,10246
268439610,TOURTERR,10213,TOURTERELLES,15,CHARLES DE GAULLE,1,10:42:46,0,1694,10246
268439599,VOIEDOR,10207,VOIE DOMITIENNE,15,CHARLES DE GAULLE,1,10:16:07,0,95,10246
268439610,VOIEDOR,10207,VOIE DOMITIENNE,15,CHARLES DE GAULLE,1,10:35:49,0,1277,10246
268439551,VOIEDOR,10207,VOIE DOMITIENNE,15,CHARLES DE GAULLE,1,10:46:16,0,1904,10246
268439551,DUMANOIR,10257,YVES DU MANOIR,15,CHARLES DE GAULLE,1,10:23:22,0,530,10246
268439618,DUMANOIR,10257,YVES DU MANOIR,15,CHARLES DE GAULLE,1,10:40:51,0,1579,10246
268439575,DUMANOIR,10257,YVES DU MANOIR,15,CHARLES DE GAULLE,1,10:55:51,0,2479,10246
268439584,AIGUE05E,5136,AIGUELONGUE,15,JEUNE PARQUE,0,10:19:59,0,327,5132
268439625,AIGUE05E,5136,AIGUELONGUE,15,JEUNE PARQUE,0,10:34:59,0,1227,5132
268439600,AIGUE05E,5136,AIGUELONGUE,15,JEUNE PARQUE,0,10:49:59,0,2127,5132
268439925,BELVEDES,9219,BELVEDERE,15,JEUNE PARQUE,0,10:21:47,0,435,5132
268439584,BELVEDES,9219,BELVEDERE,15,JEUNE PARQUE,0,10:37:11,0,1359,5132
268439625,BELVEDES,9219,BELVEDERE,15,JEUNE PARQUE,0,10:52:11,0,2259,5132
268439584,BENGALIA,10105,BENGALIS,15,JEUNE PARQUE,0,10:19:09,0,277,5132
268439625,BENGALIA,10105,BENGALIS,15,JEUNE PARQUE,0,10:34:09,0,1177,5132
268439600,BENGALIA,10105,BENGALIS,15,JEUNE PARQUE,0,10:49:09,0,2077,5132
268439633,BUGARELA,10156,BUGAREL,15,JEUNE PARQUE,0,10:26:35,0,723,5132
268439925,BUGARELA,10156,BUGAREL,15,JEUNE PARQUE,0,10:36:41,0,1329,5132
268439584,BUGARELA,10156,BUGAREL,15,JEUNE PARQUE,0,10:51:45,0,2233,5132
268439584,CDGAULLA,10150,CH. DE GAULLE,15,JEUNE PARQUE,0,10:15:00,0,28,5132
268439625,CDGAULLA,10150,CH. DE GAULLE,15,JEUNE PARQUE,0,10:30:00,0,928,5132
268439600,CDGAULLA,10150,CH. DE GAULLE,15,JEUNE PARQUE,0,10:45:00,0,1828,5132
268439633,CHDUE,4239,CHENG-DU,15,JEUNE PARQUE,0,10:26:18,0,706,5132
268439925,CHDUE,4239,CHENG-DU,15,JEUNE PARQUE,0,10:35:35,0,1263,5132
268439584,CHDUE,4239,CHENG-DU,15,JEUNE PARQUE,0,10:50:59,0,2187,5132
268439925,CINSAULA,3124,CINSAULTS,15,JEUNE PARQUE,0,10:17:09,0,157,5132
268439584,CINSAULA,3124,CINSAULTS,15,JEUNE PARQUE,0,10:32:33,0,1081,5132
268439625,CINSAULA,3124,CINSAULTS,15,JEUNE PARQUE,0,10:47:33,0,1981,5132
268439543,BUGATTIE,10162,ETTORE BUGATTI,15,JEUNE PARQUE,0,10:17:59,0,207,5132
268439633,BUGATTIE,10162,ETTORE BUGATTI,15,JEUNE PARQUE,0,10:37:29,0,1377,5132
268439925,BUGATTIE,10162,ETTORE BUGATTI,15,JEUNE PARQUE,0,10:47:00,0,1948,5132
268439925,PHARMACA,10111,FAC DE PHARMACIE,15,JEUNE PARQUE,0,10:15:34,0,62,5132
268439584,PHARMACA,10111,FAC DE PHARMACIE,15,JEUNE PARQUE,0,10:30:38,0,966,5132
268439625,PHARMACA,10111,FAC DE PHARMACIE,15,JEUNE PARQUE,0,10:45:38,0,1866,5132
268439584,HDUNANTA,10110,HENRI DUNANT,15,JEUNE PARQUE,0,10:27:15,0,763,5132
268439625,HDUNANTA,10110,HENRI DUNANT,15,JEUNE PARQUE,0,10:42:15,0,1663,5132
268439600,HDUNANTA,10110,HENRI DUNANT,15,JEUNE PARQUE,0,10:57:15,0,2563,5132
268439925,HENRIMAA,3125,HENRI MARES,15,JEUNE PARQUE,0,10:18:00,0,208,5132
268439584,HENRIMAA,3125,HENRI MARES,15,JEUNE PARQUE,0,10:33:24,0,1132,5132
268439625,HENRIMAA,3125,HENRI MARES,15,JEUNE PARQUE,0,10:48:24,0,2032,5132
268439543,JASMAURS,10138,JASSE DE MAURIN,15,JEUNE PARQUE,0,10:16:35,0,123,5132
268439633,JASMAURS,10138,JASSE DE MAURIN,15,JEUNE PARQUE,0,10:36:23,0,1311,5132
268439925,JASMAURS,10138,JASSE DE MAURIN,15,JEUNE PARQUE,0,10:45:40,0,1868,5132
268439925,CALVINA,10114,JEAN CALVIN,15,JEUNE PARQUE,0,10:20:37,0,365,5132
268439584,CALVINA,10114,JEAN CALVIN,15,JEUNE PARQUE,0,10:36:01,0,1289,5132
268439625,CALVINA,10114,JEAN CALVIN,15,JEUNE PARQUE,0,10:51:01,0,2189,5132
268439633,GRANDME,6105,LE GRAND M,15,JEUNE PARQUE,0,10:29:34,0,902,5132
268439925,GRANDME,6105,LE GRAND M,15,JEUNE PARQUE,0,10:39:40,0,1508,5132
268439584,GRANDME,6105,LE GRAND M,15,JEUNE PARQUE,0,10:54:44,0,2412,5132
268439633,BOUISS4A,7165,LES BOUISSES,15,JEUNE PARQUE,0,10:22:20,0,468,5132
268439925,BOUISS4A,7165,LES BOUISSES,15,JEUNE PARQUE,0,10:31:37,0,1025,5132
268439584,BOUISS4A,7165,LES BOUISSES,15,JEUNE PARQUE,0,10:47:01,0,1949,5132
268439925,LOUISRAA,3126,LOUIS RAVAZ,15,JEUNE PARQUE,0,10:18:34,0,242,5132
268439584,LOUISRAA,3126,LOUIS RAVAZ,15,JEUNE PARQUE,0,10:33:58,0,1166,5132
268439625,LOUISRAA,3126,LOUIS RAVAZ,15,JEUNE PARQUE,0,10:48:58,0,2066,5132
268439633,COLLINEA,7124,LYCEE J. FERRY,15,JEUNE PARQUE,0,10:17:48,0,196,5132
268439925,COLLINEA,7124,LYCEE J. FERRY,15,JEUNE PARQUE,0,10:27:35,0,783,5132
268439584,COLLINEA,7124,LYCEE J. FERRY,15,JEUNE PARQUE,0,10:42:39,0,1687,5132
268439584,CHEVALIA,10103,M. CHEVALIER,15,JEUNE PARQUE,0,10:17:33,0,181,5132
268439625,CHEVALIA,10103,M. CHEVALIER,15,JEUNE PARQUE,0,10:32:33,0,1081,5132
268439600,CHEVALIA,10103,M. CHEVALIER,15,JEUNE PARQUE,0,10:47:33,0,1981,5132
268439584,FLANDREA,10109,MAJOR FLANDRE,15,JEUNE PARQUE,0,10:25:23,0,651,5132
268439625,FLANDREA,10109,MAJOR FLANDRE,15,JEUNE PARQUE,0,10:40:23,0,1551,5132
268439600,FLANDREA,10109,MAJOR FLANDRE,15,JEUNE PARQUE,0,10:55:23,0,2451,5132
268439633,MARTELIA,7125,MARTELLIERE,15,JEUNE PARQUE,0,10:19:20,0,288,5132
268439925,MARTELIA,7125,MARTELLIERE,15,JEUNE PARQUE,0,10:28:37,0,845,5132
268439584,MARTELIA,7125,MARTELLIERE,15,JEUNE PARQUE,0,10:44:01,0,1769,5132
268439633,BAGNEREA,10155,MAS DE BAGNERES,15,JEUNE PARQUE,0,10:31:48,0,1036,5132
268439925,BAGNEREA,10155,MAS DE BAGNERES,15,JEUNE PARQUE,0,10:41:35,0,1623,5132
268439584,BAGNEREA,10155,MAS DE BAGNERES,15,JEUNE PARQUE,0,10:56:39,0,2527,5132
268439633,ORMEAUXA,7162,ORMEAUX,15,JEUNE PARQUE,0,10:21:16,0,404,5132
268439925,ORMEAUXA,7162,ORMEAUX,15,JEUNE PARQUE,0,10:30:33,0,961,5132
268439584,ORMEAUXA,7162,ORMEAUX,15,JEUNE PARQUE,0,10:45:57,0,1885,5132
268439543,LUMUMBAE,10153,PATRICE LUMUMBA,15,JEUNE PARQUE,0,10:17:42,0,190,5132
268439633,LUMUMBAE,10153,PATRICE LUMUMBA,15,JEUNE PARQUE,0,10:36:34,0,1322,5132
268439925,LUMUMBAE,10153,PATRICE LUMUMBA,15,JEUNE PARQUE,0,10:46:40,0,1928,5132
268439633,PFAJONE,4139,PAUL FAJON,15,JEUNE PARQUE,0,10:23:42,0,550,5132
268439925,PFAJONE,4139,PAUL FAJON,15,JEUNE PARQUE,0,10:33:32,0,1140,5132
268439584,PFAJONE,4139,PAUL FAJON,15,JEUNE PARQUE,0,10:48:36,0,2044,5132
268439925,RIEGESA,10113,RIEGES,15,JEUNE PARQUE,0,10:19:49,0,317,5132
268439584,RIEGESA,10113,RIEGES,15,JEUNE PARQUE,0,10:34:53,0,1221,5132
268439625,RIEGESA,10113,RIEGES,15,JEUNE PARQUE,0,10:49:53,0,2121,5132
268439584,ROQUETUA,10104,ROQUETURIERE,15,JEUNE PARQUE,0,10:18:14,0,222,5132
268439625,ROQUETUA,10104,ROQUETURIERE,15,JEUNE PARQUE,0,10:33:14,0,1122,5132
268439600,ROQUETUA,10104,ROQUETURIERE,15,JEUNE PARQUE,0,10:48:14,0,2022,5132
268439633,ROUGETE,4238,ROUGET DE LISLE,15,JEUNE PARQUE,0,10:24:18,0,586,5132
268439925,ROUGETE,4238,ROUGET DE LISLE,15,JEUNE PARQUE,0,10:33:49,0,1157,5132
268439584,ROUGETE,4238,ROUGET DE LISLE,15,JEUNE PARQUE,0,10:49:13,0,2081,5132
268439633,SABINA,10152,SABINES,15,JEUNE PARQUE,0,10:33:20,0,1128,5132
268439925,SABINA,10152,SABINES,15,JEUNE PARQUE,0,10:42:37,0,1685,5132
268439584,SABINA,10152,SABINES,15,JEUNE PARQUE,0,10:58:01,0,2609,5132
268439584,STELOIA,10136,SAINT-ELOI,15,JEUNE PARQUE,0,10:29:00,0,868,5132
268439625,STELOIA,10136,SAINT-ELOI,15,JEUNE PARQUE,0,10:44:00,0,1768,5132
268439600,STELOIA,10136,SAINT-ELOI,15,JEUNE PARQUE,0,10:59:00,0,2668,5132
268439584,STLAZARA,10151,SAINT-LAZARE,15,JEUNE PARQUE,0,10:17:00,0,148,5132
268439625,STLAZARA,10151,SAINT-LAZARE,15,JEUNE PARQUE,0,10:32:00,0,1048,5132
268439600,STLAZARA,10151,SAINT-LAZARE,15,JEUNE PARQUE,0,10:47:00,0,1948,5132
268439584,STECATHA,10108,SAINTE-CATHERINE,15,JEUNE PARQUE,0,10:23:28,0,536,5132
268439625,STECATHA,10108,SAINTE-CATHERINE,15,JEUNE PARQUE,0,10:38:28,0,1436,5132
268439600,STECATHA,10108,SAINTE-CATHERINE,15,JEUNE PARQUE,0,10:53:28,0,2336,5132
268439633,SGERMAIA,7161,SOPHIE GERMAIN,15,JEUNE PARQUE,0,10:19:32,0,300,5132
268439925,SGERMAIA,7161,SOPHIE GERMAIN,15,JEUNE PARQUE,0,10:29:38,0,906,5132
268439584,SGERMAIA,7161,SOPHIE GERMAIN,15,JEUNE PARQUE,0,10:44:42,0,1810,5132
268439925,TONNELRA,10129,TONNELLES,15,JEUNE PARQUE,0,10:23:55,0,563,5132
268439584,TONNELRA,10129,TONNELLES,15,JEUNE PARQUE,0,10:39:19,0,1487,5132
268439625,TONNELRA,10129,TONNELLES,15,JEUNE PARQUE,0,10:54:19,0,2387,5132
268439584,TOURTERA,10107,TOURTERELLES,15,JEUNE PARQUE,0,10:22:12,0,460,5132
268439625,TOURTERA,10107,TOURTERELLES,15,JEUNE PARQUE,0,10:37:12,0,1360,5132
268439600,TOURTERA,10107,TOURTERELLES,15,JEUNE PARQUE,0,10:52:12,0,2260,5132
268439925,VOIEDOA,10112,VOIE DOMITIENNE,15,JEUNE PARQUE,0,10:16:03,0,91,5132
268439584,VOIEDOA,10112,VOIE DOMITIENNE,15,JEUNE PARQUE,0,10:31:27,0,1015,5132
268439625,VOIEDOA,10112,VOIE DOMITIENNE,15,JEUNE PARQUE,0,10:46:27,0,1915,5132
268439633,DUMANOIA,10157,YVES DU MANOIR,15,JEUNE PARQUE,0,10:27:40,0,788,5132
268439925,DUMANOIA,10157,YVES DU MANOIR,15,JEUNE PARQUE,0,10:37:46,0,1394,5132
268439584,DUMANOIA,10157,YVES DU MANOIR,15,JEUNE PARQUE,0,10:52:50,0,2298,5132
268439574,CASTELLE,5102,CASTELLE,15,SAINT-CLEOPHAS,1,10:33:20,0,1128,10161
268439574,DEMETERE,12131,DEMETER,15,SAINT-CLEOPHAS,1,10:32:30,0,1078,10161
268439574,GAROSUDA,5131,JEUNE PARQUE,15,SAINT-CLEOPHAS,1,10:31:00,0,988,10161
268439574,LESPINSE,5104,LES PINS,15,SAINT-CLEOPHAS,1,10:34:21,0,1189,10161
268439574,PASSERIE,5103,PASSERINES,15,SAINT-CLEOPHAS,1,10:33:47,0,1155,10161
268439574,STCLEDES,10160,SAINT-CLEOPHAS,15,SAINT-CLEOPHAS,1,10:35:21,0,1249,10161
268439574,TAME,12130,TAM,15,SAINT-CLEOPHAS,1,10:32:00,0,1048,10161
268439833,MALRAUXA,9126,ANDRE MALRAUX,16,CH. DE GAULLE,1,10:16:10,0,98,16501
268439562,MALRAUXA,9126,ANDRE MALRAUX,16,CH. DE GAULLE,1,10:30:00,0,928,16501
268439819,MALRAUXA,9126,ANDRE MALRAUX,16,CH. DE GAULLE,1,10:45:00,0,1828,16501
268439833,APOLLO,9142,APOLLO,16,CH. DE GAULLE,1,10:18:10,0,218,16501
268439562,APOLLO,9142,APOLLO,16,CH. DE GAULLE,1,10:32:00,0,1048,16501
268439819,APOLLO,9142,APOLLO,16,CH. DE GAULLE,1,10:47:00,0,1948,16501
268439562,COLSVERA,9123,COLVERTS,16,CH. DE GAULLE,1,10:27:03,0,751,16501
268439819,COLSVERA,9123,COLVERTS,16,CH. DE GAULLE,1,10:42:03,0,1651,16501
268439849,COLSVERA,9123,COLVERTS,16,CH. DE GAULLE,1,10:57:03,0,2551,16501
268439833,MDURANDA,9125,MARIE DURAND,16,CH. DE GAULLE,1,10:15:18,0,46,16501
268439562,MDURANDA,9125,MARIE DURAND,16,CH. DE GAULLE,1,10:29:08,0,876,16501
268439819,MDURANDA,9125,MARIE DURAND,16,CH. DE GAULLE,1,10:44:08,0,1776,16501
268439833,MASROCHR,8124,MAS DE ROCHET,16,CH. DE GAULLE,1,10:20:18,0,346,16501
268439562,MASROCHR,8124,MAS DE ROCHET,16,CH. DE GAULLE,1,10:34:47,0,1215,16501
268439819,MASROCHR,8124,MAS DE ROCHET,16,CH. DE GAULLE,1,10:49:47,0,2115,16501
268439562,PAINLEVA,9122,PAUL PAINLEVE,16,CH. DE GAULLE,1,10:26:00,0,688,16501
268439819,PAINLEVA,9122,PAUL PAINLEVE,16,CH. DE GAULLE,1,10:41:00,0,1588,16501
268439849,PAINLEVA,9122,PAUL PAINLEVE,16,CH. DE GAULLE,1,10:56:00,0,2488,16501
268439833,LAROQUEA,10159,PIERRE LAROQUE,16,CH. DE GAULLE,1,10:17:20,0,168,16501
268439562,LAROQUEA,10159,PIERRE LAROQUE,16,CH. DE GAULLE,1,10:31:10,0,998,16501
268439819,LAROQUEA,10159,PIERRE LAROQUE,16,CH. DE GAULLE,1,10:46:10,0,1898,16501
268439833,PIOCHPER,8202,PIOCH PELAT,16,CH. DE GAULLE,1,10:22:27,0,475,16501
268439562,PIOCHPER,8202,PIOCH PELAT,16,CH. DE GAULLE,1,10:36:17,0,1305,16501
268439819,PIOCHPER,8202,PIOCH PELAT,16,CH. DE GAULLE,1,10:51:17,0,2205,16501
268439562,P_EUR16R,16403,PL. DE L'EUROPE,16,CH. DE GAULLE,1,10:22:00,0,448,16501
268439819,P_EUR16R,16403,PL. DE L'EUROPE,16,CH. DE GAULLE,1,10:37:00,0,1348,16501
268439849,P_EUR16R,16403,PL. DE L'EUROPE,16,CH. DE GAULLE,1,10:52:00,0,2248,16501
268439562,PTJUVENR,16236,PONT JUVENAL,16,CH. DE GAULLE,1,10:21:24,0,412,16501
268439819,PTJUVENR,16236,PONT JUVENAL,16,CH. DE GAULLE,1,10:36:24,0,1312,16501
268439849,PTJUVENR,16236,PONT JUVENAL,16,CH. DE GAULLE,1,10:51:24,0,2212,16501
268439562,PMARIANN,16401,PORT MARIANNE,16,CH. DE GAULLE,1,10:20:00,0,328,16501
268439819,PMARIANN,16401,PORT MARIANNE,16,CH. DE GAULLE,1,10:35:00,0,1228,16501
268439849,PMARIANN,16401,PORT MARIANNE,16,CH. DE GAULLE,1,10:50:00,0,2128,16501
268439562,STJEANA,9124,SAINT-JEAN,16,CH. DE GAULLE,1,10:27:46,0,794,16501
268439819,STJEANA,9124,SAINT-JEAN,16,CH. DE GAULLE,1,10:42:46,0,1694,16501
268439849,STJEANA,9124,SAINT-JEAN,16,CH. DE GAULLE,1,10:57:46,0,2594,16501
268439833,POMPIGND,9132,SEMARD,16,CH. DE GAULLE,1,10:16:01,0,89,16501
268439562,POMPIGND,9132,SEMARD,16,CH. DE GAULLE,1,10:30:30,0,958,16501
268439819,POMPIGND,9132,SEMARD,16,CH. DE GAULLE,1,10:45:30,0,1858,16501
268439818,MALRAUXR,9202,ANDRE MALRAUX,16,PORT MARIANNE,0,10:16:11,0,99,16401
268439848,MALRAUXR,9202,ANDRE MALRAUX,16,PORT MARIANNE,0,10:29:00,0,868,16401
268439834,MALRAUXR,9202,ANDRE MALRAUX,16,PORT MARIANNE,0,10:44:00,0,1768,16401
268439848,APOLLOD,9145,APOLLO,16,PORT MARIANNE,0,10:26:00,0,688,16401
268439834,APOLLOD,9145,APOLLO,16,PORT MARIANNE,0,10:41:00,0,1588,16401
268439563,APOLLOD,9145,APOLLO,16,PORT MARIANNE,0,10:56:00,0,2488,16401
268439848,CDG16D,16301,CH. DE GAULLE,16,PORT MARIANNE,0,10:25:00,0,628,16401
268439834,CDG16D,16301,CH. DE GAULLE,16,PORT MARIANNE,0,10:40:00,0,1528,16401
268439563,CDG16D,16301,CH. DE GAULLE,16,PORT MARIANNE,0,10:55:00,0,2428,16401
268439818,COLSVERR,9205,COLVERTS,16,PORT MARIANNE,0,10:19:35,0,303,16401
268439848,COLSVERR,9205,COLVERTS,16,PORT MARIANNE,0,10:32:27,0,1075,16401
268439834,COLSVERR,9205,COLVERTS,16,PORT MARIANNE,0,10:47:27,0,1975,16401
268439818,MDURANDR,9203,MARIE DURAND,16,PORT MARIANNE,0,10:17:12,0,160,16401
268439848,MDURANDR,9203,MARIE DURAND,16,PORT MARIANNE,0,10:30:01,0,929,16401
268439834,MDURANDR,9203,MARIE DURAND,16,PORT MARIANNE,0,10:45:01,0,1829,16401
268439848,MASROCHE,16303,MAS DE ROCHET,16,PORT MARIANNE,0,10:25:32,0,660,16401
268439834,MASROCHE,16303,MAS DE ROCHET,16,PORT MARIANNE,0,10:40:32,0,1560,16401
268439563,MASROCHE,16303,MAS DE ROCHET,16,PORT MARIANNE,0,10:55:32,0,2460,16401
268439818,PAINLEVR,9206,PAUL PAINLEVE,16,PORT MARIANNE,0,10:21:11,0,399,16401
268439848,PAINLEVR,9206,PAUL PAINLEVE,16,PORT MARIANNE,0,10:34:00,0,1168,16401
268439834,PAINLEVR,9206,PAUL PAINLEVE,16,PORT MARIANNE,0,10:49:00,0,2068,16401
268439818,LAROQUER,10259,PIERRE LAROQUE,16,PORT MARIANNE,0,10:14:53,0,21,16401
268439848,LAROQUER,10259,PIERRE LAROQUE,16,PORT MARIANNE,0,10:27:19,0,767,16401
268439834,LAROQUER,10259,PIERRE LAROQUE,16,PORT MARIANNE,0,10:42:19,0,1667,16401
268439848,PIOCHPEA,8122,PIOCH PELAT,16,PORT MARIANNE,0,10:25:18,0,646,16401
268439834,PIOCHPEA,8122,PIOCH PELAT,16,PORT MARIANNE,0,10:40:18,0,1546,16401
268439563,PIOCHPEA,8122,PIOCH PELAT,16,PORT MARIANNE,0,10:55:18,0,2446,16401
268439818,P_EUR16A,16309,PL. DE L'EUROPE,16,PORT MARIANNE,0,10:23:11,0,519,16401
268439848,P_EUR16A,16309,PL. DE L'EUROPE,16,PORT MARIANNE,0,10:36:00,0,1288,16401
268439834,P_EUR16A,16309,PL. DE L'EUROPE,16,PORT MARIANNE,0,10:51:00,0,2188,16401
268439818,PTJUVENA,16136,PONT JUVENAL,16,PORT MARIANNE,0,10:22:23,0,471,16401
268439848,PTJUVENA,16136,PONT JUVENAL,16,PORT MARIANNE,0,10:35:12,0,1240,16401
268439834,PTJUVENA,16136,PONT JUVENAL,16,PORT MARIANNE,0,10:50:12,0,2140,16401
268439818,STJEANR,9204,SAINT-JEAN,16,PORT MARIANNE,0,10:18:39,0,247,16401
268439848,STJEANR,9204,SAINT-JEAN,16,PORT MARIANNE,0,10:31:31,0,1019,16401
268439834,STJEANR,9204,SAINT-JEAN,16,PORT MARIANNE,0,10:46:31,0,1919,16401
268439818,STMICHEE,9208,SAINT-MICHEL,16,PORT MARIANNE,0,10:26:50,0,738,16401
268439848,STMICHEE,9208,SAINT-MICHEL,16,PORT MARIANNE,0,10:39:42,0,1510,16401
268439834,STMICHEE,9208,SAINT-MICHEL,16,PORT MARIANNE,0,10:54:42,0,2410,16401
268439818,POMPIG9R,9129,SEMARD,16,PORT MARIANNE,0,10:15:26,0,54,16401
268439848,POMPIG9R,9129,SEMARD,16,PORT MARIANNE,0,10:28:15,0,823,16401
268439834,POMPIG9R,9129,SEMARD,16,PORT MARIANNE,0,10:43:15,0,1723,16401
268440197,CARRIERS,1143,CARRIERA,19,COUBERTIN,1,10:21:48,0,436,1135
268439980,CARRIERS,1143,CARRIERA,19,COUBERTIN,1,10:27:23,0,771,1135
268439998,CARRIERS,1143,CARRIERA,19,COUBERTIN,1,10:39:41,0,1509,1135
268439945,COMTENIS,1133,COMTE DE NICE,19,COUBERTIN,1,10:16:22,0,110,1135
268440197,COMTENIS,1133,COMTE DE NICE,19,COUBERTIN,1,10:25:35,0,663,1135
268439980,COMTENIS,1133,COMTE DE NICE,19,COUBERTIN,1,10:31:30,0,1018,1135
268440197,COMTETOS,1127,COMTE TOULOUSE,19,COUBERTIN,1,10:20:31,0,359,1135
268439980,COMTETOS,1127,COMTE TOULOUSE,19,COUBERTIN,1,10:25:47,0,675,1135
268439998,COMTETOS,1127,COMTE TOULOUSE,19,COUBERTIN,1,10:37:33,0,1381,1135
268439945,CORSES,1132,CORSE,19,COUBERTIN,1,10:15:38,0,66,1135
268440197,CORSES,1132,CORSE,19,COUBERTIN,1,10:25:33,0,661,1135
268439980,CORSES,1132,CORSE,19,COUBERTIN,1,10:30:49,0,977,1135
268440197,GEMEAUXS,1124,GEMEAUX,19,COUBERTIN,1,10:17:35,0,183,1135
268439980,GEMEAUXS,1124,GEMEAUX,19,COUBERTIN,1,10:23:30,0,538,1135
268439998,GEMEAUXS,1124,GEMEAUX,19,COUBERTIN,1,10:35:48,0,1276,1135
268439980,HALLESPS,1137,HALLES PAILLADE,19,COUBERTIN,1,10:18:51,0,259,1135
268439998,HALLESPS,1137,HALLES PAILLADE,19,COUBERTIN,1,10:30:37,0,965,1135
268439963,HALLESPS,1137,HALLES PAILLADE,19,COUBERTIN,1,10:40:21,0,1549,1135
268440197,HTMASSAS,1125,HAUTS DE MASSANE,19,COUBERTIN,1,10:18:35,0,243,1135
268439980,HTMASSAS,1125,HAUTS DE MASSANE,19,COUBERTIN,1,10:24:30,0,598,1135
268439998,HTMASSAS,1125,HAUTS DE MASSANE,19,COUBERTIN,1,10:36:48,0,1336,1135
268439998,HDEPARTE,7132,HOT. DEPARTEMENT,19,COUBERTIN,1,10:25:48,0,676,1135
268439963,HDEPARTE,7132,HOT. DEPARTEMENT,19,COUBERTIN,1,10:35:00,0,1228,1135
268437912,HDEPARTE,7132,HOT. DEPARTEMENT,19,COUBERTIN,1,10:45:00,0,1828,1135
268439945,PREVERTS,1131,JACQUES PREVERT,19,COUBERTIN,1,10:14:33,0,1,1135
268440197,PREVERTS,1131,JACQUES PREVERT,19,COUBERTIN,1,10:23:41,0,549,1135
268439980,PREVERTS,1131,JACQUES PREVERT,19,COUBERTIN,1,10:29:44,0,912,1135
268439980,LVINCI7S,7236,LYCEE DE VINCI,19,COUBERTIN,1,10:16:49,0,137,1135
268439998,LVINCI7S,7236,LYCEE DE VINCI,19,COUBERTIN,1,10:28:35,0,843,1135
268439963,LVINCI7S,7236,LYCEE DE VINCI,19,COUBERTIN,1,10:38:19,0,1427,1135
268439945,MBELLEVS,1134,MAS DE BELLEVUE,19,COUBERTIN,1,10:17:46,0,194,1135
268440197,MBELLEVS,1134,MAS DE BELLEVUE,19,COUBERTIN,1,10:27:35,0,783,1135
268439980,MBELLEVS,1134,MAS DE BELLEVUE,19,COUBERTIN,1,10:33:10,0,1118,1135
268439980,OXFORDS,19202,OXFORD,19,COUBERTIN,1,10:17:30,0,178,1135
268439998,OXFORDS,19202,OXFORD,19,COUBERTIN,1,10:29:48,0,916,1135
268439963,OXFORDS,19202,OXFORD,19,COUBERTIN,1,10:39:00,0,1468,1135
268439980,MALBOSCS,9227,PARC MALBOSC,19,COUBERTIN,1,10:15:03,0,31,1135
268439998,MALBOSCS,9227,PARC MALBOSC,19,COUBERTIN,1,10:26:33,0,721,1135
268439963,MALBOSCS,9227,PARC MALBOSC,19,COUBERTIN,1,10:36:33,0,1321,1135
268440197,CARDENAS,1142,PIERRE CARDENAL,19,COUBERTIN,1,10:20:30,0,358,1135
268439980,CARDENAS,1142,PIERRE CARDENAL,19,COUBERTIN,1,10:26:33,0,721,1135
268439998,CARDENAS,1142,PIERRE CARDENAL,19,COUBERTIN,1,10:38:51,0,1459,1135
268440197,PITALIES,1130,PLACE D'ITALIE,19,COUBERTIN,1,10:22:40,0,488,1135
268439980,PITALIES,1130,PLACE D'ITALIE,19,COUBERTIN,1,10:27:56,0,804,1135
268439998,PITALIES,1130,PLACE D'ITALIE,19,COUBERTIN,1,10:39:42,0,1510,1135
268440197,R_ORANGS,1126,RAIMBAUD ORANGE,19,COUBERTIN,1,10:19:47,0,315,1135
268439980,R_ORANGS,1126,RAIMBAUD ORANGE,19,COUBERTIN,1,10:25:22,0,650,1135
268439998,R_ORANGS,1126,RAIMBAUD ORANGE,19,COUBERTIN,1,10:37:40,0,1388,1135
268440197,UPPSALAS,19201,UPPSALA,19,COUBERTIN,1,10:15:47,0,75,1135
268439980,UPPSALAS,19201,UPPSALA,19,COUBERTIN,1,10:21:03,0,391,1135
268439998,UPPSALAS,19201,UPPSALA,19,COUBERTIN,1,10:32:33,0,1081,1135
268437910,CARRIERE,1208,CARRIERA,19,H. DEPARTEMENT,0,10:20:01,0,329,7143
268439946,CARRIERE,1208,CARRIERA,19,H. DEPARTEMENT,0,10:30:01,0,929,7143
268440198,CARRIERE,1208,CARRIERA,19,H. DEPARTEMENT,0,10:40:01,0,1529,7143
268437910,COMTENIE,1203,COMTE DE NICE,19,H. DEPARTEMENT,0,10:16:00,0,88,7143
268439946,COMTENIE,1203,COMTE DE NICE,19,H. DEPARTEMENT,0,10:26:00,0,688,7143
268440198,COMTENIE,1203,COMTE DE NICE,19,H. DEPARTEMENT,0,10:36:00,0,1288,7143
268437910,COMTETOE,1210,COMTE TOULOUSE,19,H. DEPARTEMENT,0,10:21:28,0,416,7143
268439946,COMTETOE,1210,COMTE TOULOUSE,19,H. DEPARTEMENT,0,10:31:28,0,1016,7143
268440198,COMTETOE,1210,COMTE TOULOUSE,19,H. DEPARTEMENT,0,10:41:28,0,1616,7143
268437910,CORSEE,1204,CORSE,19,H. DEPARTEMENT,0,10:16:44,0,132,7143
268439946,CORSEE,1204,CORSE,19,H. DEPARTEMENT,0,10:26:44,0,732,7143
268440198,CORSEE,1204,CORSE,19,H. DEPARTEMENT,0,10:36:44,0,1332,7143
268439961,GEMEAUXE,1213,GEMEAUX,19,H. DEPARTEMENT,0,10:17:32,0,180,7143
268437910,GEMEAUXE,1213,GEMEAUX,19,H. DEPARTEMENT,0,10:26:01,0,689,7143
268439946,GEMEAUXE,1213,GEMEAUX,19,H. DEPARTEMENT,0,10:36:01,0,1289,7143
268439996,HALLESPE,1240,HALLES PAILLADE,19,H. DEPARTEMENT,0,10:15:46,0,74,7143
268439961,HALLESPE,1240,HALLES PAILLADE,19,H. DEPARTEMENT,0,10:20:55,0,383,7143
268437910,HALLESPE,1240,HALLES PAILLADE,19,H. DEPARTEMENT,0,10:29:30,0,898,7143
268437910,HTMASSAE,1212,HAUTS DE MASSANE,19,H. DEPARTEMENT,0,10:23:01,0,509,7143
268439946,HTMASSAE,1212,HAUTS DE MASSANE,19,H. DEPARTEMENT,0,10:33:01,0,1109,7143
268440198,HTMASSAE,1212,HAUTS DE MASSANE,19,H. DEPARTEMENT,0,10:43:01,0,1709,7143
268437910,PREVERTE,1205,JACQUES PREVERT,19,H. DEPARTEMENT,0,10:17:38,0,186,7143
268439946,PREVERTE,1205,JACQUES PREVERT,19,H. DEPARTEMENT,0,10:27:38,0,786,7143
268440198,PREVERTE,1205,JACQUES PREVERT,19,H. DEPARTEMENT,0,10:37:38,0,1386,7143
268439996,LVINCI7E,7136,LYCEE DE VINCI,19,H. DEPARTEMENT,0,10:19:31,0,299,7143
268439961,LVINCI7E,7136,LYCEE DE VINCI,19,H. DEPARTEMENT,0,10:23:37,0,545,7143
268437910,LVINCI7E,7136,LYCEE DE VINCI,19,H. DEPARTEMENT,0,10:32:43,0,1091,7143
268437910,MBELLEVE,1202,MAS DE BELLEVUE,19,H. DEPARTEMENT,0,10:15:33,0,61,7143
268439946,MBELLEVE,1202,MAS DE BELLEVUE,19,H. DEPARTEMENT,0,10:25:33,0,661,7143
268440198,MBELLEVE,1202,MAS DE BELLEVUE,19,H. DEPARTEMENT,0,10:35:33,0,1261,7143
268439996,OXFORD,1138,OXFORD,19,H. DEPARTEMENT,0,10:17:49,0,197,7143
268439961,OXFORD,1138,OXFORD,19,H. DEPARTEMENT,0,10:22:32,0,480,7143
268437910,OXFORD,1138,OXFORD,19,H. DEPARTEMENT,0,10:31:01,0,989,7143
268437910,COUBERTE,1141,P. DE COUBERTIN,19,H. DEPARTEMENT,0,10:15:00,0,28,7143
268439946,COUBERTE,1141,P. DE COUBERTIN,19,H. DEPARTEMENT,0,10:25:00,0,628,7143
268440198,COUBERTE,1141,P. DE COUBERTIN,19,H. DEPARTEMENT,0,10:35:00,0,1228,7143
268437910,CARDENAE,1209,PIERRE CARDENAL,19,H. DEPARTEMENT,0,10:21:03,0,391,7143
268439946,CARDENAE,1209,PIERRE CARDENAL,19,H. DEPARTEMENT,0,10:31:03,0,991,7143
268440198,CARDENAE,1209,PIERRE CARDENAL,19,H. DEPARTEMENT,0,10:41:03,0,1591,7143
268437910,PITALIEE,1206,PLACE D'ITALIE,19,H. DEPARTEMENT,0,10:19:20,0,288,7143
268439946,PITALIEE,1206,PLACE D'ITALIE,19,H. DEPARTEMENT,0,10:29:20,0,888,7143
268440198,PITALIEE,1206,PLACE D'ITALIE,19,H. DEPARTEMENT,0,10:39:20,0,1488,7143
268437910,R_ORANGE,1211,RAIMBAUD ORANGE,19,H. DEPARTEMENT,0,10:22:13,0,461,7143
268439946,R_ORANGE,1211,RAIMBAUD ORANGE,19,H. DEPARTEMENT,0,10:32:13,0,1061,7143
268440198,R_ORANGE,1211,RAIMBAUD ORANGE,19,H. DEPARTEMENT,0,10:42:13,0,1661,7143
268439961,STPAUE_B,19102,SAINT-PAUL,19,H. DEPARTEMENT,0,10:18:30,0,238,7143
268437910,STPAUE_B,19102,SAINT-PAUL,19,H. DEPARTEMENT,0,10:26:59,0,747,7143
268439946,STPAUE_B,19102,SAINT-PAUL,19,H. DEPARTEMENT,0,10:36:59,0,1347,7143
268436510,AIGUETWS,42147,AIGUELONGUE,2,JACOU,0,10:19:06,0,274,42169
268436805,AUBEROUS,42163,AUBE ROUGE,2,JACOU,0,10:19:34,0,302,42169
268436510,AUBEROUS,42163,AUBE ROUGE,2,JACOU,0,10:29:07,0,875,42169
268436858,AUBEROUS,42163,AUBE ROUGE,2,JACOU,0,10:48:30,0,2038,42169
268436510,BXARTTWS,42143,BEAUX-ARTS,2,JACOU,0,10:15:32,0,60,42169
268436858,BXARTTWS,42143,BEAUX-ARTS,2,JACOU,0,10:34:46,0,1214,42169
268436805,CENTUTWS,42157,CENTURIONS,2,JACOU,0,10:16:35,0,123,42169
268436510,CENTUTWS,42157,CENTURIONS,2,JACOU,0,10:25:40,0,668,42169
268436510,DEGAULLS,42151,CH. DE GAULLE,2,JACOU,0,10:21:38,0,426,42169
268436510,CLAIRTWS,42153,CLAIRVAL,2,JACOU,0,10:23:10,0,518,42169
268436858,COMEDRTW,41223,COMEDIE,2,JACOU,0,10:30:01,0,929,42169
268436858,CORUM2S,42141,CORUM T2,2,JACOU,0,10:34:01,0,1169,42169
268436858,CXARGTWE,42115,CROIX D'ARGENT,2,JACOU,0,10:18:01,0,209,42169
268436592,CXARGTWE,42115,CROIX D'ARGENT,2,JACOU,0,10:33:47,0,1155,42169
268436858,GARERTW,41221,GARE ST-ROCH T1,2,JACOU,0,10:28:01,0,809,42169
268436805,GPOMPTWS,42167,GEORGES POMPIDOU,2,JACOU,0,10:25:56,0,684,42169
268436510,GPOMPTWS,42167,GEORGES POMPIDOU,2,JACOU,0,10:35:00,0,1228,42169
268436858,GPOMPTWS,42167,GEORGES POMPIDOU,2,JACOU,0,10:54:30,0,2398,42169
268436805,GALINTWS,42155,LA GALINE,2,JACOU,0,10:14:48,0,16,42169
268436510,GALINTWS,42155,LA GALINE,2,JACOU,0,10:24:36,0,604,42169
268436858,LEMASTWE,42119,LEMASSON,2,JACOU,0,10:20:47,0,375,42169
268436592,LEMASTWE,42119,LEMASSON,2,JACOU,0,10:36:33,0,1321,42169
268436510,ABBESTWS,42145,MAIL DES ABBES,2,JACOU,0,10:16:59,0,147,42169
268436858,ABBESTWS,42145,MAIL DES ABBES,2,JACOU,0,10:36:45,0,1333,42169
268436858,DREVOTWE,42117,MAS DREVON,2,JACOU,0,10:18:38,0,246,42169
268436592,DREVOTWE,42117,MAS DREVON,2,JACOU,0,10:34:56,0,1224,42169
268436805,SABLASSS,42159,ND DE SABLASSOU,2,JACOU,0,10:17:56,0,204,42169
268436510,SABLASSS,42159,ND DE SABLASSOU,2,JACOU,0,10:27:16,0,764,42169
268436858,SABLASSS,42159,ND DE SABLASSOU,2,JACOU,0,10:47:02,0,1950,42169
268436858,NVSTROCE,42123,NOUVEAU ST-ROCH,2,JACOU,0,10:24:01,0,569,42169
268436805,PLANKSTS,42171,PLANKSTADT,2,JACOU,0,10:21:34,0,422,42169
268436510,PLANKSTS,42171,PLANKSTADT,2,JACOU,0,10:31:07,0,995,42169
268436858,PLANKSTS,42171,PLANKSTADT,2,JACOU,0,10:50:30,0,2158,42169
268436858,RONDETWE,42125,RONDELET,2,JACOU,0,10:25:55,0,683,42169
268436592,SABINESE,42111,SABINES,2,JACOU,0,10:30:47,0,975,42169
268436858,STCLETWE,42121,SAINT-CLEOPHAS,2,JACOU,0,10:22:01,0,449,42169
268436510,STLAZTWS,42149,SAINT-LAZARE,2,JACOU,0,10:20:09,0,337,42169
268436805,VDOMITIS,42165,VIA DOMITIA,2,JACOU,0,10:23:34,0,542,42169
268436510,VDOMITIS,42165,VIA DOMITIA,2,JACOU,0,10:33:07,0,1115,42169
268436858,VDOMITIS,42165,VIA DOMITIA,2,JACOU,0,10:52:30,0,2278,42169
268436858,ANGOUTWE,42113,VIL. D'ANGOULEME,2,JACOU,0,10:16:30,0,118,42169
268436592,ANGOUTWE,42113,VIL. D'ANGOULEME,2,JACOU,0,10:32:47,0,1095,42169
268436957,AIGUETWS,42147,AIGUELONGUE,2,ND DE SABLASSOU,0,10:15:39,0,67,42159
268436732,AIGUETWS,42147,AIGUELONGUE,2,ND DE SABLASSOU,0,10:32:29,0,1077,42159
268436732,BXARTTWS,42143,BEAUX-ARTS,2,ND DE SABLASSOU,0,10:28:44,0,852,42159
268436957,CENTUTWS,42157,CENTURIONS,2,ND DE SABLASSOU,0,10:22:47,0,495,42159
268436957,DEGAULLS,42151,CH. DE GAULLE,2,ND DE SABLASSOU,0,10:18:51,0,259,42159
268436732,DEGAULLS,42151,CH. DE GAULLE,2,ND DE SABLASSOU,0,10:35:29,0,1257,42159
268436957,CLAIRTWS,42153,CLAIRVAL,2,ND DE SABLASSOU,0,10:19:43,0,311,42159
268436732,CLAIRTWS,42153,CLAIRVAL,2,ND DE SABLASSOU,0,10:36:24,0,1312,42159
268436732,COMEDRTW,41223,COMEDIE,2,ND DE SABLASSOU,0,10:23:29,0,537,42159
268436543,COMEDRTW,41223,COMEDIE,2,ND DE SABLASSOU,0,10:33:40,0,1148,42159
268436732,CORUM2S,42141,CORUM T2,2,ND DE SABLASSOU,0,10:27:29,0,777,42159
268436543,CORUM2S,42141,CORUM T2,2,ND DE SABLASSOU,0,10:37:40,0,1388,42159
268436543,CXARGTWE,42115,CROIX D'ARGENT,2,ND DE SABLASSOU,0,10:21:40,0,428,42159
268436732,GARERTW,41221,GARE ST-ROCH T1,2,ND DE SABLASSOU,0,10:21:29,0,417,42159
268436543,GARERTW,41221,GARE ST-ROCH T1,2,ND DE SABLASSOU,0,10:31:40,0,1028,42159
268436894,CONDATWE,42105,LA CONDAMINE,2,ND DE SABLASSOU,0,10:29:00,0,868,42159
268436773,CONDATWE,42105,LA CONDAMINE,2,ND DE SABLASSOU,0,10:44:00,0,1768,42159
268436472,CONDATWE,42105,LA CONDAMINE,2,ND DE SABLASSOU,0,10:59:00,0,2668,42159
268436957,GALINTWS,42155,LA GALINE,2,ND DE SABLASSOU,0,10:21:00,0,388,42159
268436543,LEMASTWE,42119,LEMASSON,2,ND DE SABLASSOU,0,10:24:45,0,613,42159
268436543,GRISETTE,42109,LES GRISETTES,2,ND DE SABLASSOU,0,10:16:40,0,128,42159
268436894,GRISETTE,42109,LES GRISETTES,2,ND DE SABLASSOU,0,10:32:00,0,1048,42159
268436773,GRISETTE,42109,LES GRISETTES,2,ND DE SABLASSOU,0,10:47:00,0,1948,42159
268436732,ABBESTWS,42145,MAIL DES ABBES,2,ND DE SABLASSOU,0,10:30:04,0,932,42159
268436543,DREVOTWE,42117,MAS DREVON,2,ND DE SABLASSOU,0,10:23:08,0,516,42159
268436732,NVSTROCE,42123,NOUVEAU ST-ROCH,2,ND DE SABLASSOU,0,10:17:29,0,177,42159
268436543,NVSTROCE,42123,NOUVEAU ST-ROCH,2,ND DE SABLASSOU,0,10:27:40,0,788,42159
268436732,RONDETWE,42125,RONDELET,2,ND DE SABLASSOU,0,10:19:23,0,291,42159
268436543,RONDETWE,42125,RONDELET,2,ND DE SABLASSOU,0,10:29:34,0,902,42159
268436543,SABINESE,42111,SABINES,2,ND DE SABLASSOU,0,10:18:59,0,267,42159
268436894,SABINESE,42111,SABINES,2,ND DE SABLASSOU,0,10:34:00,0,1168,42159
268436732,STCLETWE,42121,SAINT-CLEOPHAS,2,ND DE SABLASSOU,0,10:15:29,0,57,42159
268436543,STCLETWE,42121,SAINT-CLEOPHAS,2,ND DE SABLASSOU,0,10:25:40,0,668,42159
268436957,STLAZTWS,42149,SAINT-LAZARE,2,ND DE SABLASSOU,0,10:16:52,0,140,42159
268436732,STLAZTWS,42149,SAINT-LAZARE,2,ND DE SABLASSOU,0,10:33:23,0,1131,42159
268436894,VEDASD,42101,ST-JEAN CENTRE,2,ND DE SABLASSOU,0,10:26:00,0,688,42159
268436773,VEDASD,42101,ST-JEAN CENTRE,2,ND DE SABLASSOU,0,10:41:00,0,1588,42159
268436472,VEDASD,42101,ST-JEAN CENTRE,2,ND DE SABLASSOU,0,10:56:00,0,2488,42159
268436894,STJSECE,42103,ST-JEAN LE SEC,2,ND DE SABLASSOU,0,10:28:00,0,808,42159
268436773,STJSECE,42103,ST-JEAN LE SEC,2,ND DE SABLASSOU,0,10:43:00,0,1708,42159
268436472,STJSECE,42103,ST-JEAN LE SEC,2,ND DE SABLASSOU,0,10:58:00,0,2608,42159
268436543,VICTOIRS,42107,VICTOIRE 2,2,ND DE SABLASSOU,0,10:15:40,0,68,42159
268436894,VICTOIRS,42107,VICTOIRE 2,2,ND DE SABLASSOU,0,10:31:00,0,988,42159
268436773,VICTOIRS,42107,VICTOIRE 2,2,ND DE SABLASSOU,0,10:46:00,0,1888,42159
268436543,ANGOUTWE,42113,VIL. D'ANGOULEME,2,ND DE SABLASSOU,0,10:20:40,0,368,42159
268436927,AIGUETWE,42223,AIGUELONGUE,2,SABINES,1,10:25:00,0,628,42259
268436927,BXARTTWE,42227,BEAUX-ARTS,2,SABINES,1,10:29:26,0,894,42259
268436927,CENTUTWE,42213,CENTURIONS,2,SABINES,1,10:18:19,0,227,42259
268436960,CENTUTWE,42213,CENTURIONS,2,SABINES,1,10:33:19,0,1127,42259
268436927,DEGAULLE,42219,CH. DE GAULLE,2,SABINES,1,10:22:00,0,448,42259
268436927,CLAIRTWE,42217,CLAIRVAL,2,SABINES,1,10:20:56,0,384,42259
268436695,COMEDATW,41133,COMEDIE,2,SABINES,1,10:18:43,0,251,42259
268436927,COMEDATW,41133,COMEDIE,2,SABINES,1,10:34:00,0,1168,42259
268436695,CORUM2E,42229,CORUM T2,2,SABINES,1,10:15:43,0,71,42259
268436927,CORUM2E,42229,CORUM T2,2,SABINES,1,10:31:00,0,988,42259
268436589,CXARGTWS,42255,CROIX D'ARGENT,2,SABINES,1,10:24:48,0,616,42259
268436695,CXARGTWS,42255,CROIX D'ARGENT,2,SABINES,1,10:30:43,0,971,42259
268436589,GARETW,41135,GARE ST-ROCH T1,2,SABINES,1,10:14:48,0,16,42259
268436695,GARETW,41135,GARE ST-ROCH T1,2,SABINES,1,10:20:43,0,371,42259
268436927,GALINTWE,42215,LA GALINE,2,SABINES,1,10:19:39,0,307,42259
268436960,GALINTWE,42215,LA GALINE,2,SABINES,1,10:34:39,0,1207,42259
268436589,LEMASTWS,42251,LEMASSON,2,SABINES,1,10:21:33,0,421,42259
268436695,LEMASTWS,42251,LEMASSON,2,SABINES,1,10:27:58,0,806,42259
268436927,ABBESTWE,42225,MAIL DES ABBES,2,SABINES,1,10:27:44,0,792,42259
268436589,DREVOTWS,42253,MAS DREVON,2,SABINES,1,10:23:40,0,548,42259
268436695,DREVOTWS,42253,MAS DREVON,2,SABINES,1,10:29:35,0,903,42259
268436927,SABLASSE,42211,ND DE SABLASSOU,2,SABINES,1,10:17:00,0,148,42259
268436960,SABLASSE,42211,ND DE SABLASSOU,2,SABINES,1,10:32:00,0,1048,42259
268436589,NVSTROCS,42247,NOUVEAU ST-ROCH,2,SABINES,1,10:18:48,0,256,42259
268436695,NVSTROCS,42247,NOUVEAU ST-ROCH,2,SABINES,1,10:24:43,0,611,42259
268436589,RONDETWS,42245,RONDELET,2,SABINES,1,10:16:52,0,140,42259
268436695,RONDETWS,42245,RONDELET,2,SABINES,1,10:22:47,0,495,42259
268436589,STCLETWS,42249,SAINT-CLEOPHAS,2,SABINES,1,10:20:48,0,376,42259
268436695,STCLETWS,42249,SAINT-CLEOPHAS,2,SABINES,1,10:26:43,0,731,42259
268436927,STLAZTWE,42221,SAINT-LAZARE,2,SABINES,1,10:23:56,0,564,42259
268436589,ANGOUTWS,42257,VIL. D'ANGOULEME,2,SABINES,1,10:25:47,0,675,42259
268436695,ANGOUTWS,42257,VIL. D'ANGOULEME,2,SABINES,1,10:31:42,0,1030,42259
268436471,AIGUETWE,42223,AIGUELONGUE,2,ST-JEAN DE VEDAS,1,10:18:37,0,245,42101
268436651,AIGUETWE,42223,AIGUELONGUE,2,ST-JEAN DE VEDAS,1,10:33:37,0,1145,42101
268436651,AUBEROUE,42207,AUBE ROUGE,2,ST-JEAN DE VEDAS,1,10:23:37,0,545,42101
268436806,AUBEROUE,42207,AUBE ROUGE,2,ST-JEAN DE VEDAS,1,10:38:00,0,1408,42101
268436511,AUBEROUE,42207,AUBE ROUGE,2,ST-JEAN DE VEDAS,1,10:53:00,0,2308,42101
268436471,BXARTTWE,42227,BEAUX-ARTS,2,ST-JEAN DE VEDAS,1,10:23:27,0,535,42101
268436651,BXARTTWE,42227,BEAUX-ARTS,2,ST-JEAN DE VEDAS,1,10:38:11,0,1419,42101
268436651,CENTUTWE,42213,CENTURIONS,2,ST-JEAN DE VEDAS,1,10:26:56,0,744,42101
268436471,DEGAULLE,42219,CH. DE GAULLE,2,ST-JEAN DE VEDAS,1,10:15:37,0,65,42101
268436651,DEGAULLE,42219,CH. DE GAULLE,2,ST-JEAN DE VEDAS,1,10:30:37,0,965,42101
268436471,CLAIRTWE,42217,CLAIRVAL,2,ST-JEAN DE VEDAS,1,10:14:56,0,24,42101
268436651,CLAIRTWE,42217,CLAIRVAL,2,ST-JEAN DE VEDAS,1,10:29:33,0,901,42101
268436471,COMEDATW,41133,COMEDIE,2,ST-JEAN DE VEDAS,1,10:27:33,0,781,42101
268436471,CORUM2E,42229,CORUM T2,2,ST-JEAN DE VEDAS,1,10:24:37,0,605,42101
268436772,CXARGTWS,42255,CROIX D'ARGENT,2,ST-JEAN DE VEDAS,1,10:24:39,0,607,42101
268436772,GARETW,41135,GARE ST-ROCH T1,2,ST-JEAN DE VEDAS,1,10:15:04,0,32,42101
268436651,GPOMPTWE,42203,GEORGES POMPIDOU,2,ST-JEAN DE VEDAS,1,10:17:37,0,185,42101
268436806,GPOMPTWE,42203,GEORGES POMPIDOU,2,ST-JEAN DE VEDAS,1,10:32:00,0,1048,42101
268436511,GPOMPTWE,42203,GEORGES POMPIDOU,2,ST-JEAN DE VEDAS,1,10:47:00,0,1948,42101
268436651,JACOUTWS,42169,JACOU,2,ST-JEAN DE VEDAS,1,10:15:37,0,65,42101
268436806,JACOUTWS,42169,JACOU,2,ST-JEAN DE VEDAS,1,10:30:00,0,928,42101
268436511,JACOUTWS,42169,JACOU,2,ST-JEAN DE VEDAS,1,10:45:00,0,1828,42101
268436893,CONDATWS,42265,LA CONDAMINE,2,ST-JEAN DE VEDAS,1,10:17:30,0,178,42101
268436772,CONDATWS,42265,LA CONDAMINE,2,ST-JEAN DE VEDAS,1,10:33:04,0,1112,42101
268436471,CONDATWS,42265,LA CONDAMINE,2,ST-JEAN DE VEDAS,1,10:47:37,0,1985,42101
268436651,GALINTWE,42215,LA GALINE,2,ST-JEAN DE VEDAS,1,10:28:16,0,824,42101
268436772,LEMASTWS,42251,LEMASSON,2,ST-JEAN DE VEDAS,1,10:22:42,0,490,42101
268436772,GRISETTS,42261,LES GRISETTES,2,ST-JEAN DE VEDAS,1,10:30:04,0,932,42101
268436471,GRISETTS,42261,LES GRISETTES,2,ST-JEAN DE VEDAS,1,10:44:37,0,1805,42101
268436651,GRISETTS,42261,LES GRISETTES,2,ST-JEAN DE VEDAS,1,10:59:37,0,2705,42101
268436471,ABBESTWE,42225,MAIL DES ABBES,2,ST-JEAN DE VEDAS,1,10:21:44,0,432,42101
268436651,ABBESTWE,42225,MAIL DES ABBES,2,ST-JEAN DE VEDAS,1,10:35:53,0,1281,42101
268436772,DREVOTWS,42253,MAS DREVON,2,ST-JEAN DE VEDAS,1,10:23:53,0,561,42101
268436651,SABLASSE,42211,ND DE SABLASSOU,2,ST-JEAN DE VEDAS,1,10:25:37,0,665,42101
268436772,NVSTROCS,42247,NOUVEAU ST-ROCH,2,ST-JEAN DE VEDAS,1,10:19:04,0,272,42101
268436651,PLANKSTE,42271,PLANKSTADT,2,ST-JEAN DE VEDAS,1,10:21:37,0,425,42101
268436806,PLANKSTE,42271,PLANKSTADT,2,ST-JEAN DE VEDAS,1,10:36:00,0,1288,42101
268436511,PLANKSTE,42271,PLANKSTADT,2,ST-JEAN DE VEDAS,1,10:51:00,0,2188,42101
268436772,RONDETWS,42245,RONDELET,2,ST-JEAN DE VEDAS,1,10:17:31,0,179,42101
268436772,SABINESS,42259,SABINES,2,ST-JEAN DE VEDAS,1,10:28:27,0,835,42101
268436471,SABINESS,42259,SABINES,2,ST-JEAN DE VEDAS,1,10:43:01,0,1709,42101
268436651,SABINESS,42259,SABINES,2,ST-JEAN DE VEDAS,1,10:57:37,0,2585,42101
268436772,STCLETWS,42249,SAINT-CLEOPHAS,2,ST-JEAN DE VEDAS,1,10:21:04,0,392,42101
268436471,STLAZTWE,42221,SAINT-LAZARE,2,ST-JEAN DE VEDAS,1,10:17:56,0,204,42101
268436651,STLAZTWE,42221,SAINT-LAZARE,2,ST-JEAN DE VEDAS,1,10:32:33,0,1081,42101
268436893,STJSECS,42267,ST-JEAN LE SEC,2,ST-JEAN DE VEDAS,1,10:18:30,0,238,42101
268436772,STJSECS,42267,ST-JEAN LE SEC,2,ST-JEAN DE VEDAS,1,10:34:04,0,1172,42101
268436471,STJSECS,42267,ST-JEAN LE SEC,2,ST-JEAN DE VEDAS,1,10:48:37,0,2045,42101
268436651,VDOMITIE,42205,VIA DOMITIA,2,ST-JEAN DE VEDAS,1,10:19:37,0,305,42101
268436806,VDOMITIE,42205,VIA DOMITIA,2,ST-JEAN DE VEDAS,1,10:34:00,0,1168,42101
268436511,VDOMITIE,42205,VIA DOMITIA,2,ST-JEAN DE VEDAS,1,10:49:00,0,2068,42101
268436893,VICTOIRE,42263,VICTOIRE 2,2,ST-JEAN DE VEDAS,1,10:16:30,0,118,42101
268436772,VICTOIRE,42263,VICTOIRE 2,2,ST-JEAN DE VEDAS,1,10:32:04,0,1052,42101
268436471,VICTOIRE,42263,VICTOIRE 2,2,ST-JEAN DE VEDAS,1,10:46:37,0,1925,42101
268436772,ANGOUTWS,42257,VIL. D'ANGOULEME,2,ST-JEAN DE VEDAS,1,10:25:36,0,664,42101
268437154,ASTRUT3S,43241,ASTRUC,3,JUVIGNAC,0,10:16:05,0,93,43101
268437432,ASTRUT3S,43241,ASTRUC,3,JUVIGNAC,0,10:28:35,0,843,43101
268437184,BOIRAT3E,43209,BOIRARGUES,3,JUVIGNAC,0,10:17:46,0,194,43101
268437480,BOIRAT3E,43209,BOIRARGUES,3,JUVIGNAC,0,10:34:00,0,1168,43101
268437154,CELLET3S,43253,CELLENEUVE,3,JUVIGNAC,0,10:26:20,0,708,43101
268437184,ECOPOLEE,43207,ECOPOLE,3,JUVIGNAC,0,10:15:46,0,74,43101
268437480,ECOPOLEE,43207,ECOPOLE,3,JUVIGNAC,0,10:32:00,0,1048,43101
268437282,ECOPOLEE,43207,ECOPOLE,3,JUVIGNAC,0,10:47:00,0,1948,43101
268437432,GARETW3A,43127,GARE ST-ROCH T3,3,JUVIGNAC,0,10:19:32,0,300,43101
268437184,GARETW3A,43127,GARE ST-ROCH T3,3,JUVIGNAC,0,10:34:46,0,1214,43101
268437154,HDEPTT3S,43249,HOT. DEPARTEMENT,3,JUVIGNAC,0,10:23:07,0,515,43101
268437154,GUESDT3S,43243,JULES GUESDE,3,JUVIGNAC,0,10:18:05,0,213,43101
268437432,GUESDT3S,43243,JULES GUESDE,3,JUVIGNAC,0,10:30:31,0,959,43101
268437154,ARCEAT3S,43239,LES ARCEAUX,3,JUVIGNAC,0,10:14:38,0,6,43101
268437432,ARCEAT3S,43239,LES ARCEAUX,3,JUVIGNAC,0,10:27:23,0,771,43101
268437154,MOSSOT3S,43255,MOSSON T3,3,JUVIGNAC,0,10:28:07,0,815,43101
268437432,MOSSOT3S,43255,MOSSON T3,3,JUVIGNAC,0,10:40:32,0,1560,43101
268437184,MOSSOT3S,43255,MOSSON T3,3,JUVIGNAC,0,10:56:01,0,2489,43101
268437184,MOULARTW,41209,MOULARES,3,JUVIGNAC,0,10:26:17,0,705,43101
268437432,OBSERT3S,43233,OBSERVATOIRE,3,JUVIGNAC,0,10:20:32,0,360,43101
268437184,PICASSOE,43213,PABLO PICASSO,3,JUVIGNAC,0,10:20:46,0,374,43101
268437480,PEXPOT3E,43205,PARC EXPO,3,JUVIGNAC,0,10:30:00,0,928,43101
268437282,PEXPOT3E,43205,PARC EXPO,3,JUVIGNAC,0,10:45:00,0,1828,43101
268437332,PEXPOT3E,43205,PARC EXPO,3,JUVIGNAC,0,11:00:00,0,2728,43101
268437154,PERGOT3S,43247,PERGOLA,3,JUVIGNAC,0,10:21:44,0,432,43101
268437432,PERGOT3S,43247,PERGOLA,3,JUVIGNAC,0,10:33:59,0,1167,43101
268437480,PEROLT3E,43203,PEROLS CENTRE,3,JUVIGNAC,0,10:27:00,0,748,43101
268437282,PEROLT3E,43203,PEROLS CENTRE,3,JUVIGNAC,0,10:42:00,0,1648,43101
268437332,PEROLT3E,43203,PEROLS CENTRE,3,JUVIGNAC,0,10:57:00,0,2548,43101
268437480,ETGLORT3,43201,PEROLS ETANG OR,3,JUVIGNAC,0,10:25:00,0,628,43101
268437282,ETGLORT3,43201,PEROLS ETANG OR,3,JUVIGNAC,0,10:40:00,0,1528,43101
268437332,ETGLORT3,43201,PEROLS ETANG OR,3,JUVIGNAC,0,10:55:00,0,2428,43101
268437154,PILORT3S,43251,PILORY,3,JUVIGNAC,0,10:24:03,0,571,43101
268437432,CARNOTWE,42241,PLACE CARNOT,3,JUVIGNAC,0,10:15:32,0,60,43101
268437184,CARNOTWE,42241,PLACE CARNOT,3,JUVIGNAC,0,10:30:46,0,974,43101
268437432,PCABT3S,43237,PLAN CABANES,3,JUVIGNAC,0,10:25:32,0,660,43101
268437184,PMARIRTW,41207,PORT MARIANNE,3,JUVIGNAC,0,10:23:46,0,554,43101
268437184,RLEZ2E,42237,RIVES DU LEZ T3,3,JUVIGNAC,0,10:27:46,0,794,43101
268437432,STDENT3S,43235,SAINT-DENIS T3,3,JUVIGNAC,0,10:23:32,0,540,43101
268437154,TONNET3S,43245,TONNELLES,3,JUVIGNAC,0,10:19:45,0,313,43101
268437432,TONNET3S,43245,TONNELLES,3,JUVIGNAC,0,10:32:16,0,1064,43101
268437184,VOLTAIRE,42239,VOLTAIRE,3,JUVIGNAC,0,10:29:14,0,882,43101
268437303,ASTRUT3E,43117,ASTRUC,3,LATTES CENTRE,1,10:23:32,0,540,43259
268437253,BOIRAT3S,43149,BOIRARGUES,3,LATTES CENTRE,1,10:21:31,0,419,43259
268437072,BOIRAT3S,43149,BOIRARGUES,3,LATTES CENTRE,1,10:34:58,0,1226,43259
268437121,CELLRT3E,43105,CELLENEUVE,3,LATTES CENTRE,1,10:27:47,0,795,43259
268437253,COUGOT3S,43161,COUGOURLUDE,3,LATTES CENTRE,1,10:27:04,0,752,43259
268437072,COUGOT3S,43161,COUGOURLUDE,3,LATTES CENTRE,1,10:40:33,0,1561,43259
268437303,COUGOT3S,43161,COUGOURLUDE,3,LATTES CENTRE,1,10:52:36,0,2284,43259
268437072,GARETW3R,43231,GARE ST-ROCH T3,3,LATTES CENTRE,1,10:19:58,0,326,43259
268437303,GARETW3R,43231,GARE ST-ROCH T3,3,LATTES CENTRE,1,10:32:36,0,1084,43259
268437303,HDEPTT3E,43109,HOT. DEPARTEMENT,3,LATTES CENTRE,1,10:16:37,0,125,43259
268437121,HDEPTT3E,43109,HOT. DEPARTEMENT,3,LATTES CENTRE,1,10:31:00,0,988,43259
268437253,HTLIRT3S,43159,HTS LA LIRONDE,3,LATTES CENTRE,1,10:25:04,0,632,43259
268437072,HTLIRT3S,43159,HTS LA LIRONDE,3,LATTES CENTRE,1,10:38:33,0,1441,43259
268437303,HTLIRT3S,43159,HTS LA LIRONDE,3,LATTES CENTRE,1,10:50:36,0,2164,43259
268437303,GUESDT3E,43115,JULES GUESDE,3,LATTES CENTRE,1,10:22:18,0,466,43259
268437121,GUESDT3E,43115,JULES GUESDE,3,LATTES CENTRE,1,10:36:00,0,1288,43259
268437121,JUVIGNAC,43101,JUVIGNAC,3,LATTES CENTRE,1,10:21:00,0,388,43259
268437155,JUVIGNAC,43101,JUVIGNAC,3,LATTES CENTRE,1,10:36:00,0,1288,43259
268437433,JUVIGNAC,43101,JUVIGNAC,3,LATTES CENTRE,1,10:51:00,0,2188,43259
268437303,ARCEAT3E,43119,LES ARCEAUX,3,LATTES CENTRE,1,10:25:56,0,684,43259
268437121,MOSSOT3E,43103,MOSSON T3,3,LATTES CENTRE,1,10:26:00,0,688,43259
268437253,MOULAATW,41147,MOULARES,3,LATTES CENTRE,1,10:14:56,0,24,43259
268437072,MOULAATW,41147,MOULARES,3,LATTES CENTRE,1,10:27:38,0,786,43259
268437072,OBSERT3E,43125,OBSERVATOIRE,3,LATTES CENTRE,1,10:17:52,0,200,43259
268437303,OBSERT3E,43125,OBSERVATOIRE,3,LATTES CENTRE,1,10:30:36,0,964,43259
268437253,PICASSOS,43145,PABLO PICASSO,3,LATTES CENTRE,1,10:18:31,0,239,43259
268437072,PICASSOS,43145,PABLO PICASSO,3,LATTES CENTRE,1,10:31:52,0,1040,43259
268437303,PERGOT3E,43111,PERGOLA,3,LATTES CENTRE,1,10:19:01,0,269,43259
268437121,PERGOT3E,43111,PERGOLA,3,LATTES CENTRE,1,10:32:51,0,1099,43259
268437303,PILORT3E,43107,PILORY,3,LATTES CENTRE,1,10:15:33,0,61,43259
268437121,PILORT3E,43107,PILORY,3,LATTES CENTRE,1,10:29:56,0,924,43259
268437072,CARNOTWS,42129,PLACE CARNOT,3,LATTES CENTRE,1,10:22:30,0,478,43259
268437303,CARNOTWS,42129,PLACE CARNOT,3,LATTES CENTRE,1,10:36:09,0,1297,43259
268437303,PCABT3E,43121,PLAN CABANES,3,LATTES CENTRE,1,10:26:36,0,724,43259
268437253,PMARIATW,41149,PORT MARIANNE,3,LATTES CENTRE,1,10:16:31,0,119,43259
268437072,PMARIATW,41149,PORT MARIANNE,3,LATTES CENTRE,1,10:29:52,0,920,43259
268437072,RLEZ2S,42133,RIVES DU LEZ T3,3,LATTES CENTRE,1,10:25:59,0,687,43259
268437072,STDENT3E,43123,SAINT-DENIS,3,LATTES CENTRE,1,10:15:52,0,80,43259
268437303,STDENT3E,43123,SAINT-DENIS,3,LATTES CENTRE,1,10:28:36,0,844,43259
268437303,TONNET3E,43113,TONNELLES,3,LATTES CENTRE,1,10:20:37,0,365,43259
268437121,TONNET3E,43113,TONNELLES,3,LATTES CENTRE,1,10:34:19,0,1187,43259
268437072,VOLTAIRS,42131,VOLTAIRE,3,LATTES CENTRE,1,10:24:30,0,598,43259
268437303,VOLTAIRS,42131,VOLTAIRE,3,LATTES CENTRE,1,10:37:49,0,1397,43259
268437405,ASTRUT3S,43241,ASTRUC,3,MOSSON,0,10:22:45,0,493,43255
268437218,BOIRAT3E,43209,BOIRARGUES,3,MOSSON,0,10:27:00,0,748,43255
268437377,CELLET3S,43253,CELLENEUVE,3,MOSSON,0,10:17:43,0,191,43255
268437405,CELLET3S,43253,CELLENEUVE,3,MOSSON,0,10:32:53,0,1101,43255
268437218,COUGOT3E,43261,COUGOURLUDE,3,MOSSON,0,10:22:00,0,448,43255
268437254,COUGOT3E,43261,COUGOURLUDE,3,MOSSON,0,10:36:00,0,1288,43255
268437073,COUGOT3E,43261,COUGOURLUDE,3,MOSSON,0,10:52:00,0,2248,43255
268437454,GARETW3A,43127,GARE ST-ROCH T3,3,MOSSON,0,10:29:08,0,876,43255
268437377,HDEPTT3S,43249,HOT. DEPARTEMENT,3,MOSSON,0,10:14:56,0,24,43255
268437405,HDEPTT3S,43249,HOT. DEPARTEMENT,3,MOSSON,0,10:29:39,0,907,43255
268437218,HTLIRT3E,43263,HTS LA LIRONDE,3,MOSSON,0,10:24:00,0,568,43255
268437254,HTLIRT3E,43263,HTS LA LIRONDE,3,MOSSON,0,10:38:00,0,1408,43255
268437073,HTLIRT3E,43263,HTS LA LIRONDE,3,MOSSON,0,10:54:00,0,2368,43255
268437405,GUESDT3S,43243,JULES GUESDE,3,MOSSON,0,10:24:39,0,607,43255
268437218,LATTEST3,43259,LATTES CENTRE,3,MOSSON,0,10:20:00,0,328,43255
268437254,LATTEST3,43259,LATTES CENTRE,3,MOSSON,0,10:34:00,0,1168,43255
268437073,LATTEST3,43259,LATTES CENTRE,3,MOSSON,0,10:50:00,0,2128,43255
268437405,ARCEAT3S,43239,LES ARCEAUX,3,MOSSON,0,10:20:58,0,386,43255
268437454,MOULARTW,41209,MOULARES,3,MOSSON,0,10:19:50,0,318,43255
268437218,MOULARTW,41209,MOULARES,3,MOSSON,0,10:34:44,0,1212,43255
268437405,OBSERT3S,43233,OBSERVATOIRE,3,MOSSON,0,10:14:40,0,8,43255
268437454,OBSERT3S,43233,OBSERVATOIRE,3,MOSSON,0,10:29:35,0,903,43255
268437454,PICASSOE,43213,PABLO PICASSO,3,MOSSON,0,10:14:35,0,3,43255
268437218,PICASSOE,43213,PABLO PICASSO,3,MOSSON,0,10:30:00,0,928,43255
268437405,PERGOT3S,43247,PERGOLA,3,MOSSON,0,10:28:03,0,811,43255
268437377,PILORT3S,43251,PILORY,3,MOSSON,0,10:15:55,0,83,43255
268437405,PILORT3S,43251,PILORY,3,MOSSON,0,10:30:43,0,971,43255
268437454,CARNOTWE,42241,PLACE CARNOT,3,MOSSON,0,10:24:35,0,603,43255
268437405,PCABT3S,43237,PLAN CABANES,3,MOSSON,0,10:19:40,0,308,43255
268437454,PCABT3S,43237,PLAN CABANES,3,MOSSON,0,10:35:08,0,1236,43255
268437454,PMARIRTW,41207,PORT MARIANNE,3,MOSSON,0,10:17:35,0,183,43255
268437218,PMARIRTW,41207,PORT MARIANNE,3,MOSSON,0,10:33:00,0,1108,43255
268437454,RLEZ2E,42237,RIVES DU LEZ T3,3,MOSSON,0,10:22:14,0,462,43255
268437218,RLEZ2E,42237,RIVES DU LEZ T3,3,MOSSON,0,10:37:00,0,1348,43255
268437405,STDENT3S,43235,SAINT-DENIS T3,3,MOSSON,0,10:17:40,0,188,43255
268437454,STDENT3S,43235,SAINT-DENIS T3,3,MOSSON,0,10:32:35,0,1083,43255
268437405,TONNET3S,43245,TONNELLES,3,MOSSON,0,10:25:52,0,680,43255
268437454,VOLTAIRE,42239,VOLTAIRE,3,MOSSON,0,10:23:34,0,542,43255
268437218,VOLTAIRE,42239,VOLTAIRE,3,MOSSON,0,10:38:28,0,1436,43255
268437331,ASTRUT3E,43117,ASTRUC,3,PEROLS ETANG,1,10:15:47,0,75,43201
268437358,ASTRUT3E,43117,ASTRUC,3,PEROLS ETANG,1,10:29:54,0,922,43201
268437281,BOIRAT3S,43149,BOIRARGUES,3,PEROLS ETANG,1,10:23:54,0,562,43201
268437358,CELLRT3E,43105,CELLENEUVE,3,PEROLS ETANG,1,10:19:47,0,315,43201
268437380,CELLRT3E,43105,CELLENEUVE,3,PEROLS ETANG,1,10:34:47,0,1215,43201
268437281,ECOPOLES,43151,ECOPOLE,3,PEROLS ETANG,1,10:26:52,0,740,43201
268437331,ECOPOLES,43151,ECOPOLE,3,PEROLS ETANG,1,10:42:51,0,1699,43201
268437358,ECOPOLES,43151,ECOPOLE,3,PEROLS ETANG,1,10:56:58,0,2546,43201
268437331,GARETW3R,43231,GARE ST-ROCH T3,3,PEROLS ETANG,1,10:24:51,0,619,43201
268437358,HDEPTT3E,43109,HOT. DEPARTEMENT,3,PEROLS ETANG,1,10:22:59,0,507,43201
268437358,GUESDT3E,43115,JULES GUESDE,3,PEROLS ETANG,1,10:27:59,0,807,43201
268437331,ARCEAT3E,43119,LES ARCEAUX,3,PEROLS ETANG,1,10:17:30,0,178,43201
268437358,ARCEAT3E,43119,LES ARCEAUX,3,PEROLS ETANG,1,10:31:37,0,1025,43201
268437358,MOSSOT3E,43103,MOSSON T3,3,PEROLS ETANG,1,10:18:00,0,208,43201
268437380,MOSSOT3E,43103,MOSSON T3,3,PEROLS ETANG,1,10:33:00,0,1108,43201
268437281,MOULAATW,41147,MOULARES,3,PEROLS ETANG,1,10:17:04,0,152,43201
268437331,OBSERT3E,43125,OBSERVATOIRE,3,PEROLS ETANG,1,10:22:51,0,499,43201
268437281,PICASSOS,43145,PABLO PICASSO,3,PEROLS ETANG,1,10:20:54,0,382,43201
268437479,PEXPOT3S,43153,PARC EXPO,3,PEROLS ETANG,1,10:16:16,0,104,43201
268437281,PEXPOT3S,43153,PARC EXPO,3,PEROLS ETANG,1,10:28:54,0,862,43201
268437331,PEXPOT3S,43153,PARC EXPO,3,PEROLS ETANG,1,10:44:51,0,1819,43201
268437358,PERGOT3E,43111,PERGOLA,3,PEROLS ETANG,1,10:24:50,0,618,43201
268437479,PEROLT3S,43155,PEROLS CENTRE,3,PEROLS ETANG,1,10:18:16,0,224,43201
268437281,PEROLT3S,43155,PEROLS CENTRE,3,PEROLS ETANG,1,10:30:54,0,982,43201
268437331,PEROLT3S,43155,PEROLS CENTRE,3,PEROLS ETANG,1,10:46:51,0,1939,43201
268437358,PILORT3E,43107,PILORY,3,PEROLS ETANG,1,10:21:55,0,443,43201
268437331,CARNOTWS,42129,PLACE CARNOT,3,PEROLS ETANG,1,10:27:51,0,799,43201
268437331,PCABT3E,43121,PLAN CABANES,3,PEROLS ETANG,1,10:18:51,0,259,43201
268437358,PCABT3E,43121,PLAN CABANES,3,PEROLS ETANG,1,10:32:58,0,1106,43201
268437281,PMARIATW,41149,PORT MARIANNE,3,PEROLS ETANG,1,10:18:54,0,262,43201
268437281,RLEZ2S,42133,RIVES DU LEZ T3,3,PEROLS ETANG,1,10:14:42,0,10,43201
268437331,RLEZ2S,42133,RIVES DU LEZ T3,3,PEROLS ETANG,1,10:30:51,0,979,43201
268437331,STDENT3E,43123,SAINT-DENIS,3,PEROLS ETANG,1,10:20:51,0,379,43201
268437358,TONNET3E,43113,TONNELLES,3,PEROLS ETANG,1,10:26:18,0,706,43201
268437331,VOLTAIRS,42131,VOLTAIRE,3,PEROLS ETANG,1,10:28:57,0,865,43201
268437663,ALBERT4A,44102,ALBERT 1er,4,GARCIA LORCA,0,10:20:03,0,331,44106
268437775,ALBERT4R,44202,ALBERT 1er,4,GARCIA LORCA,1,10:20:19,0,347,44205
268437639,ALBERT4R,44202,ALBERT 1er,4,GARCIA LORCA,1,10:28:00,0,808,44205
268437553,ALBERT4A,44102,ALBERT 1er,4,GARCIA LORCA,0,10:31:00,0,988,44106
268437583,ALBERT4R,44202,ALBERT 1er,4,GARCIA LORCA,1,10:38:00,0,1408,44205
268437707,ALBERT4A,44102,ALBERT 1er,4,GARCIA LORCA,0,10:41:00,0,1588,44106
268437775,CORUMRTW,41225,CORUM T1,4,GARCIA LORCA,1,10:17:19,0,167,44205
268437663,CORUMATW,41131,CORUM T1,4,GARCIA LORCA,0,10:23:15,0,523,44106
268437639,CORUMRTW,41225,CORUM T1,4,GARCIA LORCA,1,10:25:00,0,628,44205
268437553,CORUMATW,41131,CORUM T1,4,GARCIA LORCA,0,10:34:00,0,1168,44106
268437583,CORUMRTW,41225,CORUM T1,4,GARCIA LORCA,1,10:35:00,0,1228,44205
268437707,CORUMATW,41131,CORUM T1,4,GARCIA LORCA,0,10:44:00,0,1768,44106
268437553,LORCAT4A,44105,GARCIA LORCA,4,GARCIA LORCA,0,10:15:00,0,28,44106
268437583,LORCA4R,44201,GARCIA LORCA,4,GARCIA LORCA,1,10:20:00,0,328,44205
268437707,LORCAT4A,44105,GARCIA LORCA,4,GARCIA LORCA,0,10:25:00,0,628,44106
268437733,LORCA4R,44201,GARCIA LORCA,4,GARCIA LORCA,1,10:30:00,0,928,44205
268437610,LORCAT4A,44105,GARCIA LORCA,4,GARCIA LORCA,0,10:35:00,0,1228,44106
268437776,LORCA4R,44201,GARCIA LORCA,4,GARCIA LORCA,1,10:40:00,0,1528,44205
268437553,GARETW3A,43127,GARE ST-ROCH T3,4,GARCIA LORCA,0,10:25:00,0,628,44106
268437775,GARETW3R,43231,GARE ST-ROCH T3,4,GARCIA LORCA,1,10:27:19,0,767,44205
268437707,GARETW3A,43127,GARE ST-ROCH T3,4,GARCIA LORCA,0,10:35:00,0,1228,44106
268437639,GARETW3R,43231,GARE ST-ROCH T3,4,GARCIA LORCA,1,10:35:00,0,1228,44205
268437610,GARETW3A,43127,GARE ST-ROCH T3,4,GARCIA LORCA,0,10:45:00,0,1828,44106
268437583,GARETW3R,43231,GARE ST-ROCH T3,4,GARCIA LORCA,1,10:45:00,0,1828,44205
268437583,HVILLE4R,43141,HOTEL DE VILLE,4,GARCIA LORCA,1,10:24:00,0,568,44205
268437609,HVILLE4A,43217,HOTEL DE VILLE,4,GARCIA LORCA,0,10:24:39,0,607,44106
268437733,HVILLE4R,43141,HOTEL DE VILLE,4,GARCIA LORCA,1,10:34:00,0,1168,44205
268437663,HVILLE4A,43217,HOTEL DE VILLE,4,GARCIA LORCA,0,10:34:03,0,1171,44106
268437776,HVILLE4R,43141,HOTEL DE VILLE,4,GARCIA LORCA,1,10:44:00,0,1768,44205
268437553,HVILLE4A,43217,HOTEL DE VILLE,4,GARCIA LORCA,0,10:45:00,0,1828,44106
268437706,RAUZE4A,43219,LA RAUZE,4,GARCIA LORCA,0,10:16:25,0,113,44106
268437583,RAUZE4R,43139,LA RAUZE,4,GARCIA LORCA,1,10:22:00,0,448,44205
268437609,RAUZE4A,43219,LA RAUZE,4,GARCIA LORCA,0,10:26:38,0,726,44106
268437733,RAUZE4R,43139,LA RAUZE,4,GARCIA LORCA,1,10:32:00,0,1048,44205
268437663,RAUZE4A,43219,LA RAUZE,4,GARCIA LORCA,0,10:36:01,0,1289,44106
268437776,RAUZE4R,43139,LA RAUZE,4,GARCIA LORCA,1,10:42:00,0,1648,44205
268437609,AUBESTWE,42231,LES AUBES,4,GARCIA LORCA,0,10:15:39,0,67,44106
268437639,AUBESTWS,42139,LES AUBES,4,GARCIA LORCA,1,10:22:00,0,448,44205
268437663,AUBESTWE,42231,LES AUBES,4,GARCIA LORCA,0,10:25:03,0,631,44106
268437583,AUBESTWS,42139,LES AUBES,4,GARCIA LORCA,1,10:32:00,0,1048,44205
268437553,AUBESTWE,42231,LES AUBES,4,GARCIA LORCA,0,10:36:00,0,1288,44106
268437733,AUBESTWS,42139,LES AUBES,4,GARCIA LORCA,1,10:42:00,0,1648,44205
268437775,BLANCRTW,41227,LOUIS BLANC,4,GARCIA LORCA,1,10:18:06,0,214,44205
268437663,BLANCATW,41129,LOUIS BLANC,4,GARCIA LORCA,0,10:21:38,0,426,44106
268437639,BLANCRTW,41227,LOUIS BLANC,4,GARCIA LORCA,1,10:26:15,0,703,44205
268437553,BLANCATW,41129,LOUIS BLANC,4,GARCIA LORCA,0,10:32:39,0,1087,44106
268437583,BLANCRTW,41227,LOUIS BLANC,4,GARCIA LORCA,1,10:36:15,0,1303,44205
268437707,BLANCATW,41129,LOUIS BLANC,4,GARCIA LORCA,0,10:42:39,0,1687,44106
268437732,NVSTROCS,42247,NOUVEAU ST-ROCH,4,GARCIA LORCA,1,10:18:26,0,234,44205
268437553,NVSTROCE,42123,NOUVEAU ST-ROCH,4,GARCIA LORCA,0,10:21:00,0,388,44106
268437707,NVSTROCE,42123,NOUVEAU ST-ROCH,4,GARCIA LORCA,0,10:31:00,0,988,44106
268437775,NVSTROCS,42247,NOUVEAU ST-ROCH,4,GARCIA LORCA,1,10:31:19,0,1007,44205
268437639,NVSTROCS,42247,NOUVEAU ST-ROCH,4,GARCIA LORCA,1,10:38:40,0,1448,44205
268437610,NVSTROCE,42123,NOUVEAU ST-ROCH,4,GARCIA LORCA,0,10:41:00,0,1588,44106
268437663,OBSERT3S,43233,OBSERVATOIRE,4,GARCIA LORCA,0,10:15:03,0,31,44106
268437775,OBSERT3E,43125,OBSERVATOIRE,4,GARCIA LORCA,1,10:24:51,0,619,44205
268437553,OBSERT3S,43233,OBSERVATOIRE,4,GARCIA LORCA,0,10:26:00,0,688,44106
268437639,OBSERT3E,43125,OBSERVATOIRE,4,GARCIA LORCA,1,10:32:33,0,1081,44205
268437707,OBSERT3S,43233,OBSERVATOIRE,4,GARCIA LORCA,0,10:36:00,0,1288,44106
268437583,OBSERT3E,43125,OBSERVATOIRE,4,GARCIA LORCA,1,10:43:00,0,1708,44205
268437663,PEYROT4A,44103,PEYROU,4,GARCIA LORCA,0,10:18:03,0,211,44106
268437775,PEYROT4R,44203,PEYROU,4,GARCIA LORCA,1,10:22:19,0,467,44205
268437553,PEYROT4A,44103,PEYROU,4,GARCIA LORCA,0,10:29:00,0,868,44106
268437639,PEYROT4R,44203,PEYROU,4,GARCIA LORCA,1,10:30:00,0,928,44205
268437707,PEYROT4A,44103,PEYROU,4,GARCIA LORCA,0,10:39:00,0,1468,44106
268437583,PEYROT4R,44203,PEYROU,4,GARCIA LORCA,1,10:40:00,0,1528,44205
268437639,EUROPRTW,41213,PL. DE L'EUROPE,4,GARCIA LORCA,1,10:18:00,0,208,44205
268437609,EUROPATW,41143,PL. DE L'EUROPE,4,GARCIA LORCA,0,10:19:39,0,307,44106
268437583,EUROPRTW,41213,PL. DE L'EUROPE,4,GARCIA LORCA,1,10:28:00,0,808,44205
268437663,EUROPATW,41143,PL. DE L'EUROPE,4,GARCIA LORCA,0,10:29:03,0,871,44106
268437733,EUROPRTW,41213,PL. DE L'EUROPE,4,GARCIA LORCA,1,10:38:00,0,1408,44205
268437553,EUROPATW,41143,PL. DE L'EUROPE,4,GARCIA LORCA,0,10:40:00,0,1528,44106
268437609,POMPITWE,42233,POMPIGNANE,4,GARCIA LORCA,0,10:17:39,0,187,44106
268437639,POMPITWS,42137,POMPIGNANE,4,GARCIA LORCA,1,10:19:56,0,324,44205
268437663,POMPITWE,42233,POMPIGNANE,4,GARCIA LORCA,0,10:27:03,0,751,44106
268437583,POMPITWS,42137,POMPIGNANE,4,GARCIA LORCA,1,10:30:00,0,928,44205
268437553,POMPITWE,42233,POMPIGNANE,4,GARCIA LORCA,0,10:38:00,0,1408,44106
268437733,POMPITWS,42137,POMPIGNANE,4,GARCIA LORCA,1,10:40:00,0,1528,44205
268437582,RESTAN4R,43135,RESTANQUE,4,GARCIA LORCA,1,10:15:25,0,53,44205
268437553,RESTAN4A,43223,RESTANQUE,4,GARCIA LORCA,0,10:16:44,0,132,44106
268437732,RESTAN4R,43135,RESTANQUE,4,GARCIA LORCA,1,10:21:43,0,431,44205
268437707,RESTAN4A,43223,RESTANQUE,4,GARCIA LORCA,0,10:26:44,0,732,44106
268437775,RESTAN4R,43135,RESTANQUE,4,GARCIA LORCA,1,10:34:08,0,1176,44205
268437610,RESTAN4A,43223,RESTANQUE,4,GARCIA LORCA,0,10:36:44,0,1332,44106
268437639,RILEZRTW,41211,RIVES DU LEZ T1,4,GARCIA LORCA,1,10:17:00,0,148,44205
268437609,RILEZATW,41145,RIVES DU LEZ T1,4,GARCIA LORCA,0,10:21:59,0,447,44106
268437583,RILEZRTW,41211,RIVES DU LEZ T1,4,GARCIA LORCA,1,10:27:00,0,748,44205
268437663,RILEZATW,41145,RIVES DU LEZ T1,4,GARCIA LORCA,0,10:31:04,0,992,44106
268437733,RILEZRTW,41211,RIVES DU LEZ T1,4,GARCIA LORCA,1,10:37:00,0,1348,44205
268437553,RILEZATW,41145,RIVES DU LEZ T1,4,GARCIA LORCA,0,10:42:00,0,1648,44106
268437732,RONDETWS,42245,RONDELET,4,GARCIA LORCA,1,10:16:22,0,110,44205
268437553,RONDETWE,42125,RONDELET,4,GARCIA LORCA,0,10:22:58,0,506,44106
268437775,RONDETWS,42245,RONDELET,4,GARCIA LORCA,1,10:29:19,0,887,44205
268437707,RONDETWE,42125,RONDELET,4,GARCIA LORCA,0,10:32:58,0,1106,44106
268437639,RONDETWS,42245,RONDELET,4,GARCIA LORCA,1,10:36:49,0,1337,44205
268437610,RONDETWE,42125,RONDELET,4,GARCIA LORCA,0,10:42:58,0,1706,44106
268437663,STGUIT4A,44104,SAINT-GUILHEM,4,GARCIA LORCA,0,10:16:18,0,106,44106
268437775,STGUIT4R,44204,SAINT-GUILHEM,4,GARCIA LORCA,1,10:24:10,0,578,44205
268437553,STGUIT4A,44104,SAINT-GUILHEM,4,GARCIA LORCA,0,10:27:14,0,762,44106
268437639,STGUIT4R,44204,SAINT-GUILHEM,4,GARCIA LORCA,1,10:31:40,0,1028,44205
268437707,STGUIT4A,44104,SAINT-GUILHEM,4,GARCIA LORCA,0,10:37:14,0,1362,44106
268437583,STGUIT4R,44204,SAINT-GUILHEM,4,GARCIA LORCA,1,10:41:47,0,1635,44205
268437553,SMART4A,43225,SAINT-MARTIN,4,GARCIA LORCA,0,10:18:00,0,208,44106
268437732,SMART4R,43133,SAINT-MARTIN,4,GARCIA LORCA,1,10:20:26,0,354,44205
268437707,SMART4A,43225,SAINT-MARTIN,4,GARCIA LORCA,0,10:28:00,0,808,44106
268437775,SMART4R,43133,SAINT-MARTIN,4,GARCIA LORCA,1,10:33:19,0,1127,44205
268437610,SMART4A,43225,SAINT-MARTIN,4,GARCIA LORCA,0,10:38:00,0,1408,44106
268437639,SMART4R,43133,SAINT-MARTIN,4,GARCIA LORCA,1,10:41:00,0,1588,44205
268440223,PL_FR50,50106,PLACE DE FRANCE,50,GARE SUD DE FRANCE,0,10:35:00,0,1228,50004
268440225,PL_FR50,50106,PLACE DE FRANCE,50,GARE SUD DE FRANCE,0,11:05:00,0,3028,50004
268440227,PL_FR50,50106,PLACE DE FRANCE,50,GARE SUD DE FRANCE,0,11:35:00,0,4828,50004
268440224,GARESDFS,50004,GARE SUD FRANCE,50,PLACE DE FRANCE,1,10:50:00,0,2128,50106
268440226,GARESDFS,50004,GARE SUD FRANCE,50,PLACE DE FRANCE,1,11:20:00,0,3928,50106
268440228,GARESDFS,50004,GARE SUD FRANCE,50,PLACE DE FRANCE,1,11:50:00,1,5728,50106
268440468,NOBELS,12125,ALFRED NOBEL,51,ND DE SABLASSOU,0,10:20:28,0,356,51101
268440339,NOBELS,12125,ALFRED NOBEL,51,ND DE SABLASSOU,0,10:35:28,0,1256,51101
268440321,NOBELS,12125,ALFRED NOBEL,51,ND DE SABLASSOU,0,10:50:28,0,2156,51101
268440468,EUREKAS,12124,EUREKA,51,ND DE SABLASSOU,0,10:21:00,0,388,51101
268440339,EUREKAS,12124,EUREKA,51,ND DE SABLASSOU,0,10:36:00,0,1288,51101
268440321,EUREKAS,12124,EUREKA,51,ND DE SABLASSOU,0,10:51:00,0,2188,51101
268440468,COUPERIR,11219,F. COUPERIN,51,ND DE SABLASSOU,0,10:18:50,0,258,51101
268440339,COUPERIR,11219,F. COUPERIN,51,ND DE SABLASSOU,0,10:33:50,0,1158,51101
268440321,COUPERIR,11219,F. COUPERIN,51,ND DE SABLASSOU,0,10:48:50,0,2058,51101
268440468,DASSAULS,37202,MARCEL DASSAULT,51,ND DE SABLASSOU,0,10:22:19,0,467,51101
268440339,DASSAULS,37202,MARCEL DASSAULT,51,ND DE SABLASSOU,0,10:37:19,0,1367,51101
268440321,DASSAULS,37202,MARCEL DASSAULT,51,ND DE SABLASSOU,0,10:52:19,0,2267,51101
268440468,PHLAMOU1,51100,PHILIPPE LAMOUR,51,ND DE SABLASSOU,0,10:21:32,0,420,51101
268440339,PHLAMOU1,51100,PHILIPPE LAMOUR,51,ND DE SABLASSOU,0,10:36:32,0,1320,51101
268440321,PHLAMOU1,51100,PHILIPPE LAMOUR,51,ND DE SABLASSOU,0,10:51:32,0,2220,51101
268440468,PINVILLS,11220,PINVILLE,51,ND DE SABLASSOU,0,10:19:24,0,292,51101
268440339,PINVILLS,11220,PINVILLE,51,ND DE SABLASSOU,0,10:34:24,0,1192,51101
268440321,PINVILLS,11220,PINVILLE,51,ND DE SABLASSOU,0,10:49:24,0,2092,51101
268440468,P_EUROPE,9149,PL. DE L'EUROPE,51,ND DE SABLASSOU,0,10:15:00,0,28,51101
268440339,P_EUROPE,9149,PL. DE L'EUROPE,51,ND DE SABLASSOU,0,10:30:00,0,928,51101
268440321,P_EUROPE,9149,PL. DE L'EUROPE,51,ND DE SABLASSOU,0,10:45:00,0,1828,51101
268440468,VPOSTER,11218,VIEILLE POSTE,51,ND DE SABLASSOU,0,10:18:00,0,208,51101
268440339,VPOSTER,11218,VIEILLE POSTE,51,ND DE SABLASSOU,0,10:33:00,0,1108,51101
268440321,VPOSTER,11218,VIEILLE POSTE,51,ND DE SABLASSOU,0,10:48:00,0,2008,51101
268440320,ANOBELE,12220,ALFRED NOBEL,51,PL. DE L'EUROPE,1,10:26:46,0,734,9232
268440469,ANOBELE,12220,ALFRED NOBEL,51,PL. DE L'EUROPE,1,10:41:46,0,1634,9232
268440340,ANOBELE,12220,ALFRED NOBEL,51,PL. DE L'EUROPE,1,10:56:46,0,2534,9232
268440320,EUREKAE,12222,EUREKA,51,PL. DE L'EUROPE,1,10:26:01,0,689,9232
268440469,EUREKAE,12222,EUREKA,51,PL. DE L'EUROPE,1,10:41:01,0,1589,9232
268440340,EUREKAE,12222,EUREKA,51,PL. DE L'EUROPE,1,10:56:01,0,2489,9232
268440320,COUPERIA,11104,F. COUPERIN,51,PL. DE L'EUROPE,1,10:28:15,0,823,9232
268440469,COUPERIA,11104,F. COUPERIN,51,PL. DE L'EUROPE,1,10:43:15,0,1723,9232
268440340,COUPERIA,11104,F. COUPERIN,51,PL. DE L'EUROPE,1,10:58:15,0,2623,9232
268440320,DASSAULE,37101,MARCEL DASSAULT,51,PL. DE L'EUROPE,1,10:24:26,0,594,9232
268440469,DASSAULE,37101,MARCEL DASSAULT,51,PL. DE L'EUROPE,1,10:39:26,0,1494,9232
268440340,DASSAULE,37101,MARCEL DASSAULT,51,PL. DE L'EUROPE,1,10:54:26,0,2394,9232
268440320,SABLA51,51101,ND DE SABLASSOU,51,PL. DE L'EUROPE,1,10:20:00,0,328,9232
268440469,SABLA51,51101,ND DE SABLASSOU,51,PL. DE L'EUROPE,1,10:35:00,0,1228,9232
268440340,SABLA51,51101,ND DE SABLASSOU,51,PL. DE L'EUROPE,1,10:50:00,0,2128,9232
268440320,PHLAMOU2,51206,PHILIPPE LAMOUR,51,PL. DE L'EUROPE,1,10:25:20,0,648,9232
268440469,PHLAMOU2,51206,PHILIPPE LAMOUR,51,PL. DE L'EUROPE,1,10:40:20,0,1548,9232
268440340,PHLAMOU2,51206,PHILIPPE LAMOUR,51,PL. DE L'EUROPE,1,10:55:20,0,2448,9232
268440320,PINVILLE,11103,PINVILLE,51,PL. DE L'EUROPE,1,10:27:37,0,785,9232
268440469,PINVILLE,11103,PINVILLE,51,PL. DE L'EUROPE,1,10:42:37,0,1685,9232
268440340,PINVILLE,11103,PINVILLE,51,PL. DE L'EUROPE,1,10:57:37,0,2585,9232
268440338,PTJUVENR,16236,PONT JUVENAL,51,PL. DE L'EUROPE,1,10:16:32,0,120,9232
268440320,PTJUVENR,16236,PONT JUVENAL,51,PL. DE L'EUROPE,1,10:32:03,0,1051,9232
268440469,PTJUVENR,16236,PONT JUVENAL,51,PL. DE L'EUROPE,1,10:47:03,0,1951,9232
268440320,VPOSTEA,11105,VIEILLE POSTE,51,PL. DE L'EUROPE,1,10:29:01,0,869,9232
268440469,VPOSTEA,11105,VIEILLE POSTE,51,PL. DE L'EUROPE,1,10:44:01,0,1769,9232
268440340,VPOSTEA,11105,VIEILLE POSTE,51,PL. DE L'EUROPE,1,10:59:01,0,2669,9232
268440522,CSTETIEA,12119,CIM. ST-ETIENNE,52,GRAMMONT,0,10:34:00,0,1168,12201
268440524,CSTETIEA,12119,CIM. ST-ETIENNE,52,GRAMMONT,0,11:04:00,0,2968,12201
268440526,CSTETIEA,12119,CIM. ST-ETIENNE,52,GRAMMONT,0,11:32:59,0,4707,12201
268440522,MELIESS,9141,GEORGES MELIES,52,GRAMMONT,0,10:28:52,0,860,12201
268440524,MELIESS,9141,GEORGES MELIES,52,GRAMMONT,0,10:58:52,0,2660,12201
268440526,MELIESS,9141,GEORGES MELIES,52,GRAMMONT,0,11:28:30,0,4438,12201
268440522,PL_FRA52,52101,PLACE DE FRANCE,52,GRAMMONT,0,10:26:00,0,688,12201
268440524,PL_FRA52,52101,PLACE DE FRANCE,52,GRAMMONT,0,10:56:00,0,2488,12201
268440526,PL_FRA52,52101,PLACE DE FRANCE,52,GRAMMONT,0,11:26:00,0,4288,12201
268440522,ZENITHA,12117,ZENITH,52,GRAMMONT,0,10:32:03,0,1051,12201
268440524,ZENITHA,12117,ZENITH,52,GRAMMONT,0,11:02:03,0,2851,12201
268440526,ZENITHA,12117,ZENITH,52,GRAMMONT,0,11:31:17,0,4605,12201
268440521,CSTETIER,12202,CIM. ST-ETIENNE,52,PLACE DE FRANCE,1,10:16:00,0,88,52101
268440523,CSTETIER,12202,CIM. ST-ETIENNE,52,PLACE DE FRANCE,1,10:46:00,0,1888,52101
268440525,CSTETIER,12202,CIM. ST-ETIENNE,52,PLACE DE FRANCE,1,11:16:00,0,3688,52101
268440521,MELIESE,9241,GEORGES MELIES,52,PLACE DE FRANCE,1,10:18:54,0,262,52101
268440523,MELIESE,9241,GEORGES MELIES,52,PLACE DE FRANCE,1,10:48:54,0,2062,52101
268440525,MELIESE,9241,GEORGES MELIES,52,PLACE DE FRANCE,1,11:18:54,0,3862,52101
268440521,GRAMMONT,12201,GRAMMONT,52,PLACE DE FRANCE,1,10:15:00,0,28,52101
268440523,GRAMMONT,12201,GRAMMONT,52,PLACE DE FRANCE,1,10:45:00,0,1828,52101
268440525,GRAMMONT,12201,GRAMMONT,52,PLACE DE FRANCE,1,11:15:00,0,3628,52101
268440521,ZENITHR,12204,ZENITH,52,PLACE DE FRANCE,1,10:18:24,0,232,52101
268440523,ZENITHR,12204,ZENITH,52,PLACE DE FRANCE,1,10:48:24,0,2032,52101
268440525,ZENITHR,12204,ZENITH,52,PLACE DE FRANCE,1,11:18:24,0,3832,52101
268437862,ALCOS,3135,ALCO,6,EUROMEDECINE,0,10:26:44,0,732,2202
268437993,ALCOS,3135,ALCO,6,EUROMEDECINE,0,10:32:17,0,1065,2202
268437901,ALCOS,3135,ALCO,6,EUROMEDECINE,0,10:43:05,0,1713,2202
268437961,AMBPARES,2125,AMBROISE PARE,6,EUROMEDECINE,0,10:19:35,0,303,2202
268437862,AMBPARES,2125,AMBROISE PARE,6,EUROMEDECINE,0,10:34:51,0,1219,2202
268437993,AMBPARES,2125,AMBROISE PARE,6,EUROMEDECINE,0,10:40:07,0,1535,2202
268437993,ANATOLEE,1236,ANATOLE FRANCE,6,EUROMEDECINE,0,10:16:34,0,122,2202
268437901,ANATOLEE,1236,ANATOLE FRANCE,6,EUROMEDECINE,0,10:27:46,0,794,2202
268437924,ANATOLEE,1236,ANATOLE FRANCE,6,EUROMEDECINE,0,10:37:29,0,1377,2202
268437846,ANTENNES,2127,ANTENNES,6,EUROMEDECINE,0,10:14:57,0,25,2202
268437961,ANTENNES,2127,ANTENNES,6,EUROMEDECINE,0,10:24:31,0,599,2202
268437862,ANTENNES,2127,ANTENNES,6,EUROMEDECINE,0,10:39:28,0,1496,2202
268437846,APOTHICS,3139,APOTHICAIRES,6,EUROMEDECINE,0,10:18:22,0,230,2202
268437961,APOTHICS,3139,APOTHICAIRES,6,EUROMEDECINE,0,10:27:03,0,751,2202
268437862,APOTHICS,3139,APOTHICAIRES,6,EUROMEDECINE,0,10:42:06,0,1654,2202
268437924,AVTOULOE,6106,AV. DE TOULOUSE,6,EUROMEDECINE,0,10:23:43,0,551,2202
268437855,AVTOULOE,6106,AV. DE TOULOUSE,6,EUROMEDECINE,0,10:45:55,0,1883,2202
268437839,AVTOULOE,6106,AV. DE TOULOUSE,6,EUROMEDECINE,0,10:53:30,0,2338,2202
268437901,BERTHELE,5118,BERTHELOT,6,EUROMEDECINE,0,10:20:03,0,331,2202
268437924,BERTHELE,5118,BERTHELOT,6,EUROMEDECINE,0,10:30:13,0,941,2202
268437855,BERTHELE,5118,BERTHELOT,6,EUROMEDECINE,0,10:51:31,0,2219,2202
268437862,CEVENNEA,3130,CEVENNES,6,EUROMEDECINE,0,10:24:43,0,611,2202
268437993,CEVENNEA,3130,CEVENNES,6,EUROMEDECINE,0,10:29:48,0,916,2202
268437901,CEVENNEA,3130,CEVENNES,6,EUROMEDECINE,0,10:41:09,0,1597,2202
268437862,CHATEAUO,3141,CHATEAU D'O,6,EUROMEDECINE,0,10:29:39,0,907,2202
268437993,CHATEAUO,3141,CHATEAU D'O,6,EUROMEDECINE,0,10:34:40,0,1208,2202
268437901,CHATEAUO,3141,CHATEAU D'O,6,EUROMEDECINE,0,10:46:01,0,1889,2202
268437862,CLAUDELS,7218,COLLEGE CLAUDEL,6,EUROMEDECINE,0,10:19:07,0,275,2202
268437993,CLAUDELS,7218,COLLEGE CLAUDEL,6,EUROMEDECINE,0,10:24:16,0,584,2202
268437901,CLAUDELS,7218,COLLEGE CLAUDEL,6,EUROMEDECINE,0,10:35:04,0,1232,2202
268437862,DORIAS,7216,DORIA,6,EUROMEDECINE,0,10:16:43,0,131,2202
268437993,DORIAS,7216,DORIA,6,EUROMEDECINE,0,10:21:48,0,436,2202
268437901,DORIAS,7216,DORIA,6,EUROMEDECINE,0,10:33:09,0,1117,2202
268437924,ESTANOVE,6102,ESTANOVE,6,EUROMEDECINE,0,10:18:51,0,259,2202
268437855,ESTANOVE,6102,ESTANOVE,6,EUROMEDECINE,0,10:40:36,0,1564,2202
268437839,ESTANOVE,6102,ESTANOVE,6,EUROMEDECINE,0,10:48:59,0,2067,2202
268437924,FONTCOUE,6104,FONT COUVERTE,6,EUROMEDECINE,0,10:20:26,0,354,2202
268437855,FONTCOUE,6104,FONT COUVERTE,6,EUROMEDECINE,0,10:42:31,0,1679,2202
268437839,FONTCOUE,6104,FONT COUVERTE,6,EUROMEDECINE,0,10:50:52,0,2180,2202
268437901,GUILLAUA,6109,G. JANVIER,6,EUROMEDECINE,0,10:17:18,0,166,2202
268437924,GUILLAUA,6109,G. JANVIER,6,EUROMEDECINE,0,10:27:14,0,762,2202
268437855,GUILLAUA,6109,G. JANVIER,6,EUROMEDECINE,0,10:49:26,0,2094,2202
268437901,BRASSENE,6126,GEORGES BRASSENS,6,EUROMEDECINE,0,10:16:03,0,91,2202
268437924,BRASSENE,6126,GEORGES BRASSENS,6,EUROMEDECINE,0,10:26:13,0,701,2202
268437855,BRASSENE,6126,GEORGES BRASSENS,6,EUROMEDECINE,0,10:47:31,0,1979,2202
268437862,GAILLARS,3140,LA GAILLARDE,6,EUROMEDECINE,0,10:20:37,0,365,2202
268437993,GAILLARS,3140,LA GAILLARDE,6,EUROMEDECINE,0,10:25:33,0,661,2202
268437901,GAILLARS,3140,LA GAILLARDE,6,EUROMEDECINE,0,10:36:29,0,1317,2202
268437862,LASREBEA,3129,LAS REBES,6,EUROMEDECINE,0,10:23:42,0,550,2202
268437993,LASREBEA,3129,LAS REBES,6,EUROMEDECINE,0,10:28:47,0,855,2202
268437901,LASREBEA,3129,LAS REBES,6,EUROMEDECINE,0,10:40:08,0,1536,2202
268437924,GRANDME,6105,LE GRAND M,6,EUROMEDECINE,0,10:22:14,0,462,2202
268437855,GRANDME,6105,LE GRAND M,6,EUROMEDECINE,0,10:44:15,0,1783,2202
268437839,GRANDME,6105,LE GRAND M,6,EUROMEDECINE,0,10:52:06,0,2254,2202
268437862,RAVASS,3137,LOUIS RAVAZ,6,EUROMEDECINE,0,10:23:00,0,508,2202
268437993,RAVASS,3137,LOUIS RAVAZ,6,EUROMEDECINE,0,10:28:09,0,817,2202
268437901,RAVASS,3137,LOUIS RAVAZ,6,EUROMEDECINE,0,10:39:26,0,1494,2202
268437901,CLEMENCE,5119,LYCEE CLEMENCEAU,6,EUROMEDECINE,0,10:22:22,0,470,2202
268437924,CLEMENCE,5119,LYCEE CLEMENCEAU,6,EUROMEDECINE,0,10:32:18,0,1066,2202
268437855,CLEMENCE,5119,LYCEE CLEMENCEAU,6,EUROMEDECINE,0,10:54:30,0,2398,2202
268437993,OBSERVSN,2133,OBSERVATOIRE,6,EUROMEDECINE,0,10:17:54,0,202,2202
268437901,OBSERVSN,2133,OBSERVATOIRE,6,EUROMEDECINE,0,10:29:04,0,872,2202
268437924,OBSERVSN,2133,OBSERVATOIRE,6,EUROMEDECINE,0,10:39:14,0,1482,2202
268437961,OCCITANS,3138,OCCITANIE,6,EUROMEDECINE,0,10:17:35,0,183,2202
268437862,OCCITANS,3138,OCCITANIE,6,EUROMEDECINE,0,10:33:08,0,1116,2202
268437993,OCCITANS,3138,OCCITANIE,6,EUROMEDECINE,0,10:38:17,0,1425,2202
268437924,PASLOU6A,6101,PAS DU LOUP,6,EUROMEDECINE,0,10:18:00,0,208,2202
268437855,PASLOU6A,6101,PAS DU LOUP,6,EUROMEDECINE,0,10:40:15,0,1543,2202
268437839,PASLOU6A,6101,PAS DU LOUP,6,EUROMEDECINE,0,10:48:06,0,2014,2202
268437862,PEYROU6S,2220,PEYROU,6,EUROMEDECINE,0,10:15:07,0,35,2202
268437993,PEYROU6S,2220,PEYROU,6,EUROMEDECINE,0,10:20:16,0,344,2202
268437901,PEYROU6S,2220,PEYROU,6,EUROMEDECINE,0,10:31:04,0,992,2202
268437862,VIALAS,3136,PIERRE VIALA,6,EUROMEDECINE,0,10:21:39,0,427,2202
268437993,VIALAS,3136,PIERRE VIALA,6,EUROMEDECINE,0,10:26:44,0,732,2202
268437901,VIALAS,3136,PIERRE VIALA,6,EUROMEDECINE,0,10:38:05,0,1413,2202
268437901,PL8MAIE,6127,PLACE DU 8 MAI,6,EUROMEDECINE,0,10:19:08,0,276,2202
268437924,PL8MAIE,6127,PLACE DU 8 MAI,6,EUROMEDECINE,0,10:28:42,0,850,2202
268437855,PL8MAIE,6127,PLACE DU 8 MAI,6,EUROMEDECINE,0,10:50:45,0,2173,2202
268437943,PUECHVIS,2129,PUECH VILLA,6,EUROMEDECINE,0,10:16:30,0,118,2202
268437846,PUECHVIS,2129,PUECH VILLA,6,EUROMEDECINE,0,10:20:29,0,357,2202
268437961,PUECHVIS,2129,PUECH VILLA,6,EUROMEDECINE,0,10:29:10,0,878,2202
268437901,RONCERAE,6107,RONCERAY,6,EUROMEDECINE,0,10:15:03,0,31,2202
268437924,RONCERAE,6107,RONCERAY,6,EUROMEDECINE,0,10:25:13,0,641,2202
268437855,RONCERAE,6107,RONCERAY,6,EUROMEDECINE,0,10:46:31,0,1919,2202
268437961,GANGESS,2126,ROUTE DE GANGES,6,EUROMEDECINE,0,10:22:17,0,465,2202
268437862,GANGESS,2126,ROUTE DE GANGES,6,EUROMEDECINE,0,10:37:20,0,1368,2202
268437993,GANGESS,2126,ROUTE DE GANGES,6,EUROMEDECINE,0,10:42:39,0,1687,2202
268437993,STDENIE5,107,SAINT-DENIS,6,EUROMEDECINE,0,10:14:46,0,14,2202
268437901,STDENIE5,107,SAINT-DENIS,6,EUROMEDECINE,0,10:26:07,0,695,2202
268437924,STDENIE5,107,SAINT-DENIS,6,EUROMEDECINE,0,10:36:27,0,1315,2202
268437993,STGUILHS,2140,SAINT-GUILHEM,6,EUROMEDECINE,0,10:19:18,0,286,2202
268437901,STGUILHS,2140,SAINT-GUILHEM,6,EUROMEDECINE,0,10:30:06,0,934,2202
268437924,STGUILHS,2140,SAINT-GUILHEM,6,EUROMEDECINE,0,10:40:16,0,1544,2202
268437961,STPRIESS,7228,SAINT-PRIEST,6,EUROMEDECINE,0,10:15:29,0,57,2202
268437862,STPRIESS,7228,SAINT-PRIEST,6,EUROMEDECINE,0,10:30:44,0,972,2202
268437993,STPRIESS,7228,SAINT-PRIEST,6,EUROMEDECINE,0,10:35:49,0,1277,2202
268437862,STEGENEA,3131,SAINTE-GENEVIEVE,6,EUROMEDECINE,0,10:25:30,0,658,2202
268437993,STEGENEA,3131,SAINTE-GENEVIEVE,6,EUROMEDECINE,0,10:30:35,0,963,2202
268437901,STEGENEA,3131,SAINTE-GENEVIEVE,6,EUROMEDECINE,0,10:41:47,0,1635,2202
268437862,STETHERR,7217,SAINTE-THERESE,6,EUROMEDECINE,0,10:17:39,0,187,2202
268437993,STETHERR,7217,SAINTE-THERESE,6,EUROMEDECINE,0,10:22:44,0,492,2202
268437901,STETHERR,7217,SAINTE-THERESE,6,EUROMEDECINE,0,10:34:05,0,1173,2202
268437846,VALDAURS,2128,VAL D'AURELLE,6,EUROMEDECINE,0,10:17:09,0,157,2202
268437961,VALDAURS,2128,VAL D'AURELLE,6,EUROMEDECINE,0,10:26:43,0,731,2202
268437862,VALDAURS,2128,VAL D'AURELLE,6,EUROMEDECINE,0,10:41:35,0,1623,2202
268437924,VEGAE,6103,VEGA,6,EUROMEDECINE,0,10:19:00,0,268,2202
268437855,VEGAE,6103,VEGA,6,EUROMEDECINE,0,10:41:15,0,1603,2202
268437839,VEGAE,6103,VEGA,6,EUROMEDECINE,0,10:49:06,0,2074,2202
268437936,BROUSSOE,6235,A. BROUSSONET,6,PAS DU LOUP,1,10:15:59,0,87,6221
268437838,BROUSSOE,6235,A. BROUSSONET,6,PAS DU LOUP,1,10:18:40,0,248,6221
268437870,BROUSSOE,6235,A. BROUSSONET,6,PAS DU LOUP,1,10:20:15,0,343,6221
268437936,ALBCATBU,6237,ALBERT 1er,6,PAS DU LOUP,1,10:16:48,0,136,6221
268437838,ALBCATBU,6237,ALBERT 1er,6,PAS DU LOUP,1,10:19:32,0,300,6221
268437870,ALBCATBU,6237,ALBERT 1er,6,PAS DU LOUP,1,10:20:43,0,371,6221
268437893,ALCOE,3201,ALCO,6,PAS DU LOUP,1,10:22:31,0,479,6221
268437954,ALCOE,3201,ALCO,6,PAS DU LOUP,1,10:29:10,0,878,6221
268440188,ALCOE,3201,ALCO,6,PAS DU LOUP,1,10:37:02,0,1350,6221
268437854,AFRANCEE,53201,ANATOLE FRANCE,6,PAS DU LOUP,1,10:19:35,0,303,6221
268437936,AFRANCEE,53201,ANATOLE FRANCE,6,PAS DU LOUP,1,10:24:25,0,593,6221
268437838,AFRANCEE,53201,ANATOLE FRANCE,6,PAS DU LOUP,1,10:27:29,0,777,6221
268437954,ANTENNEE,2205,ANTENNES,6,PAS DU LOUP,1,10:20:52,0,380,6221
268440188,ANTENNEE,2205,ANTENNES,6,PAS DU LOUP,1,10:28:29,0,837,6221
268437986,ANTENNEE,2205,ANTENNES,6,PAS DU LOUP,1,10:38:29,0,1437,6221
268437954,APOTHICE,3232,APOTHICAIRES,6,PAS DU LOUP,1,10:18:34,0,242,6221
268440188,APOTHICE,3232,APOTHICAIRES,6,PAS DU LOUP,1,10:26:50,0,738,6221
268437986,APOTHICE,3232,APOTHICAIRES,6,PAS DU LOUP,1,10:36:50,0,1338,6221
268437954,A18JUINE,16202,APPEL DU 18 JUIN,6,PAS DU LOUP,1,10:16:22,0,110,6221
268440188,A18JUINE,16202,APPEL DU 18 JUIN,6,PAS DU LOUP,1,10:24:00,0,568,6221
268437986,A18JUINE,16202,APPEL DU 18 JUIN,6,PAS DU LOUP,1,10:34:00,0,1168,6221
268437854,AVTOULOS,6215,AV. DE TOULOUSE,6,PAS DU LOUP,1,10:33:15,0,1123,6221
268437936,AVTOULOS,6215,AV. DE TOULOUSE,6,PAS DU LOUP,1,10:38:03,0,1411,6221
268437838,AVTOULOS,6215,AV. DE TOULOUSE,6,PAS DU LOUP,1,10:41:06,0,1594,6221
268437854,BERTHELS,5214,BERTHELOT,6,PAS DU LOUP,1,10:26:15,0,703,6221
268437936,BERTHELS,5214,BERTHELOT,6,PAS DU LOUP,1,10:31:03,0,991,6221
268437838,BERTHELS,5214,BERTHELOT,6,PAS DU LOUP,1,10:34:06,0,1174,6221
268437893,CEVENNER,3203,CEVENNES,6,PAS DU LOUP,1,10:24:57,0,625,6221
268437954,CEVENNER,3203,CEVENNES,6,PAS DU LOUP,1,10:31:50,0,1038,6221
268440188,CEVENNER,3203,CEVENNES,6,PAS DU LOUP,1,10:39:27,0,1495,6221
268437893,CHATO3ER,7104,CHATEAU D'O,6,PAS DU LOUP,1,10:18:05,0,213,6221
268437954,CHATO3ER,7104,CHATEAU D'O,6,PAS DU LOUP,1,10:24:32,0,600,6221
268440188,CHATO3ER,7104,CHATEAU D'O,6,PAS DU LOUP,1,10:32:48,0,1096,6221
268437838,COLCLAUE,6233,COLLEGE CLAUDEL,6,PAS DU LOUP,1,10:17:05,0,153,6221
268437870,COLCLAUE,6233,COLLEGE CLAUDEL,6,PAS DU LOUP,1,10:18:18,0,226,6221
268440535,COLCLAUE,6233,COLLEGE CLAUDEL,6,PAS DU LOUP,1,10:20:00,0,328,6221
268437923,ESTANOVS,6220,ESTANOVE,6,PAS DU LOUP,1,10:15:19,0,47,6221
268437854,ESTANOVS,6220,ESTANOVE,6,PAS DU LOUP,1,10:38:33,0,1441,6221
268437936,ESTANOVS,6220,ESTANOVE,6,PAS DU LOUP,1,10:43:27,0,1735,6221
268437954,EUROMEDE,2202,EUROMEDECINE,6,PAS DU LOUP,1,10:14:59,0,27,6221
268440188,EUROMEDE,2202,EUROMEDECINE,6,PAS DU LOUP,1,10:23:00,0,508,6221
268437986,EUROMEDE,2202,EUROMEDECINE,6,PAS DU LOUP,1,10:33:00,0,1108,6221
268437854,FONTCOUS,6218,FONT COUVERTE,6,PAS DU LOUP,1,10:35:53,0,1281,6221
268437936,FONTCOUS,6218,FONT COUVERTE,6,PAS DU LOUP,1,10:40:53,0,1581,6221
268437838,FONTCOUS,6218,FONT COUVERTE,6,PAS DU LOUP,1,10:43:32,0,1740,6221
268437854,GUILLAUR,6212,G. JANVIER,6,PAS DU LOUP,1,10:30:20,0,948,6221
268437936,GUILLAUR,6212,G. JANVIER,6,PAS DU LOUP,1,10:35:08,0,1236,6221
268437838,GUILLAUR,6212,G. JANVIER,6,PAS DU LOUP,1,10:38:11,0,1419,6221
268437854,GARE17,17,GARE SAINT-ROCH,6,PAS DU LOUP,1,10:21:31,0,419,6221
268437936,GARE17,17,GARE SAINT-ROCH,6,PAS DU LOUP,1,10:27:02,0,750,6221
268437838,GARE17,17,GARE SAINT-ROCH,6,PAS DU LOUP,1,10:30:05,0,933,6221
268437854,BRASSENS,6226,GEORGES BRASSENS,6,PAS DU LOUP,1,10:31:15,0,1003,6221
268437936,BRASSENS,6226,GEORGES BRASSENS,6,PAS DU LOUP,1,10:36:03,0,1291,6221
268437838,BRASSENS,6226,GEORGES BRASSENS,6,PAS DU LOUP,1,10:39:06,0,1474,6221
268437893,JBART7E,7137,JEAN BART,6,PAS DU LOUP,1,10:21:46,0,434,6221
268437954,JBART7E,7137,JEAN BART,6,PAS DU LOUP,1,10:28:53,0,861,6221
268440188,JBART7E,7137,JEAN BART,6,PAS DU LOUP,1,10:36:29,0,1317,6221
268437838,GAILLARE,3231,LA GAILLARDE,6,PAS DU LOUP,1,10:16:06,0,94,6221
268437870,GAILLARE,3231,LA GAILLARDE,6,PAS DU LOUP,1,10:17:19,0,167,6221
268440535,GAILLARE,3231,LA GAILLARDE,6,PAS DU LOUP,1,10:18:21,0,229,6221
268440535,LASREBER,3204,LAS REBES,6,PAS DU LOUP,1,10:14:44,0,12,6221
268437893,LASREBER,3204,LAS REBES,6,PAS DU LOUP,1,10:25:56,0,684,6221
268437954,LASREBER,3204,LAS REBES,6,PAS DU LOUP,1,10:32:50,0,1098,6221
268437854,GRANDMS,6216,LE GRAND M,6,PAS DU LOUP,1,10:34:15,0,1183,6221
268437936,GRANDMS,6216,LE GRAND M,6,PAS DU LOUP,1,10:39:03,0,1471,6221
268437838,GRANDMS,6216,LE GRAND M,6,PAS DU LOUP,1,10:42:06,0,1654,6221
268437870,RAVASE,3229,LOUIS RAVAZ,6,PAS DU LOUP,1,10:14:38,0,6,6221
268440535,RAVASE,3229,LOUIS RAVAZ,6,PAS DU LOUP,1,10:15:46,0,74,6221
268437893,RAVASE,3229,LOUIS RAVAZ,6,PAS DU LOUP,1,10:26:30,0,718,6221
268437854,CLEMENCS,5213,LYCEE CLEMENCEAU,6,PAS DU LOUP,1,10:25:31,0,659,6221
268437936,CLEMENCS,5213,LYCEE CLEMENCEAU,6,PAS DU LOUP,1,10:30:25,0,953,6221
268437838,CLEMENCS,5213,LYCEE CLEMENCEAU,6,PAS DU LOUP,1,10:33:25,0,1133,6221
268437936,MAISSPOE,3210,MAISON SPORTS,6,PAS DU LOUP,1,10:14:43,0,11,6221
268437838,MAISSPOE,3210,MAISON SPORTS,6,PAS DU LOUP,1,10:18:03,0,211,6221
268437870,MAISSPOE,3210,MAISON SPORTS,6,PAS DU LOUP,1,10:18:35,0,243,6221
268437893,OCCITANE,3228,OCCITANIE,6,PAS DU LOUP,1,10:15:30,0,58,6221
268437954,OCCITANE,3228,OCCITANIE,6,PAS DU LOUP,1,10:22:00,0,448,6221
268440188,OCCITANE,3228,OCCITANIE,6,PAS DU LOUP,1,10:30:01,0,929,6221
268437936,PEYROU6E,6236,PEYROU,6,PAS DU LOUP,1,10:18:02,0,210,6221
268437838,PEYROU6E,6236,PEYROU,6,PAS DU LOUP,1,10:21:05,0,393,6221
268437870,PEYROU6E,6236,PEYROU,6,PAS DU LOUP,1,10:22:18,0,466,6221
268437870,VIALAE,3230,PIERRE VIALA,6,PAS DU LOUP,1,10:15:43,0,71,6221
268440535,VIALAE,3230,PIERRE VIALA,6,PAS DU LOUP,1,10:17:10,0,158,6221
268437893,VIALAE,3230,PIERRE VIALA,6,PAS DU LOUP,1,10:28:05,0,813,6221
268437854,PL8MAIS,6227,PLACE DU 8 MAI,6,PAS DU LOUP,1,10:28:25,0,833,6221
268437936,PL8MAIS,6227,PLACE DU 8 MAI,6,PAS DU LOUP,1,10:33:16,0,1124,6221
268437838,PL8MAIS,6227,PLACE DU 8 MAI,6,PAS DU LOUP,1,10:36:19,0,1307,6221
268437954,PUECHVIE,2203,PUECH VILLA,6,PAS DU LOUP,1,10:17:50,0,198,6221
268440188,PUECHVIE,2203,PUECH VILLA,6,PAS DU LOUP,1,10:25:26,0,654,6221
268437986,PUECHVIE,2203,PUECH VILLA,6,PAS DU LOUP,1,10:35:26,0,1254,6221
268437854,RONCERAS,6214,RONCERAY,6,PAS DU LOUP,1,10:31:30,0,1018,6221
268437936,RONCERAS,6214,RONCERAY,6,PAS DU LOUP,1,10:37:01,0,1349,6221
268437838,RONCERAS,6214,RONCERAY,6,PAS DU LOUP,1,10:39:42,0,1510,6221
268437854,RONDELES,5212,RONDELET,6,PAS DU LOUP,1,10:23:54,0,562,6221
268437936,RONDELES,5212,RONDELET,6,PAS DU LOUP,1,10:28:54,0,862,6221
268437838,RONDELES,5212,RONDELET,6,PAS DU LOUP,1,10:31:33,0,1021,6221
268437893,GANGESE,2206,ROUTE DE GANGES,6,PAS DU LOUP,1,10:14:34,0,2,6221
268437954,GANGESE,2206,ROUTE DE GANGES,6,PAS DU LOUP,1,10:21:41,0,429,6221
268440188,GANGESE,2206,ROUTE DE GANGES,6,PAS DU LOUP,1,10:29:17,0,885,6221
268437854,STDENIE1,1235,SAINT-DENIS,6,PAS DU LOUP,1,10:16:31,0,119,6221
268437936,STDENIE1,1235,SAINT-DENIS,6,PAS DU LOUP,1,10:22:02,0,450,6221
268437838,STDENIE1,1235,SAINT-DENIS,6,PAS DU LOUP,1,10:25:05,0,633,6221
268437854,STGUILHE,2221,SAINT-GUILHEM,6,PAS DU LOUP,1,10:15:00,0,28,6221
268437936,STGUILHE,2221,SAINT-GUILHEM,6,PAS DU LOUP,1,10:20:00,0,328,6221
268437838,STGUILHE,2221,SAINT-GUILHEM,6,PAS DU LOUP,1,10:22:41,0,489,6221
268437893,STPRIESE,7101,SAINT-PRIEST,6,PAS DU LOUP,1,10:16:58,0,146,6221
268437954,STPRIESE,7101,SAINT-PRIEST,6,PAS DU LOUP,1,10:24:05,0,573,6221
268440188,STPRIESE,7101,SAINT-PRIEST,6,PAS DU LOUP,1,10:31:41,0,1029,6221
268437893,STEGENER,3202,SAINTE-GENEVIEVE,6,PAS DU LOUP,1,10:24:07,0,575,6221
268437954,STEGENER,3202,SAINTE-GENEVIEVE,6,PAS DU LOUP,1,10:30:34,0,962,6221
268440188,STEGENER,3202,SAINTE-GENEVIEVE,6,PAS DU LOUP,1,10:38:50,0,1458,6221
268437954,VALDAURE,2204,VAL D'AURELLE,6,PAS DU LOUP,1,10:19:38,0,306,6221
268440188,VALDAURE,2204,VAL D'AURELLE,6,PAS DU LOUP,1,10:27:14,0,762,6221
268437986,VALDAURE,2204,VAL D'AURELLE,6,PAS DU LOUP,1,10:37:14,0,1362,6221
268437854,VEGAS,6219,VEGA,6,PAS DU LOUP,1,10:37:15,0,1363,6221
268437936,VEGAS,6219,VEGA,6,PAS DU LOUP,1,10:42:03,0,1651,6221
268437838,VEGAS,6219,VEGA,6,PAS DU LOUP,1,10:45:06,0,1834,6221
268438295,ANATOLEE,1236,ANATOLE FRANCE,7,H. DEPARTEMENT,1,10:18:20,0,228,7143
268438164,ANATOLEE,1236,ANATOLE FRANCE,7,H. DEPARTEMENT,1,10:29:19,0,887,7143
268438176,ANATOLEE,1236,ANATOLE FRANCE,7,H. DEPARTEMENT,1,10:35:30,0,1258,7143
268438164,BERTHELE,5118,BERTHELOT,7,H. DEPARTEMENT,1,10:21:45,0,433,7143
268438176,BERTHELE,5118,BERTHELOT,7,H. DEPARTEMENT,1,10:28:00,0,808,7143
268438188,BERTHELE,5118,BERTHELOT,7,H. DEPARTEMENT,1,10:37:00,0,1348,7143
268438280,CERVANTR,7222,CERVANTES,7,H. DEPARTEMENT,1,10:21:31,0,419,7143
268438295,CERVANTR,7222,CERVANTES,7,H. DEPARTEMENT,1,10:31:18,0,1006,7143
268438164,CERVANTR,7222,CERVANTES,7,H. DEPARTEMENT,1,10:42:03,0,1651,7143
268438210,CHATDO7R,7231,CHATEAU D'O,7,H. DEPARTEMENT,1,10:15:24,0,52,7143
268438280,CHATDO7R,7231,CHATEAU D'O,7,H. DEPARTEMENT,1,10:25:44,0,672,7143
268438295,CHATDO7R,7231,CHATEAU D'O,7,H. DEPARTEMENT,1,10:35:21,0,1249,7143
268438280,ROGERS,7219,CITE ROGER,7,H. DEPARTEMENT,1,10:19:43,0,311,7143
268438295,ROGERS,7219,CITE ROGER,7,H. DEPARTEMENT,1,10:29:20,0,888,7143
268438164,ROGERS,7219,CITE ROGER,7,H. DEPARTEMENT,1,10:40:45,0,1573,7143
268438176,CRROSIER,7203,CRX DES ROSIERS,7,H. DEPARTEMENT,1,10:16:00,0,88,7143
268438260,CRROSIER,7203,CRX DES ROSIERS,7,H. DEPARTEMENT,1,10:34:00,0,1168,7143
268438238,CRROSIER,7203,CRX DES ROSIERS,7,H. DEPARTEMENT,1,10:53:00,0,2308,7143
268438164,CRXCAPIR,7214,CRX DU CAPITAINE,7,H. DEPARTEMENT,1,10:20:20,0,348,7143
268438176,CRXCAPIR,7214,CRX DU CAPITAINE,7,H. DEPARTEMENT,1,10:26:31,0,719,7143
268438188,CRXCAPIR,7214,CRX DU CAPITAINE,7,H. DEPARTEMENT,1,10:35:31,0,1259,7143
268438295,DORIAS,7216,DORIA,7,H. DEPARTEMENT,1,10:23:15,0,523,7143
268438164,DORIAS,7216,DORIA,7,H. DEPARTEMENT,1,10:34:40,0,1208,7143
268438176,DORIAS,7216,DORIA,7,H. DEPARTEMENT,1,10:40:55,0,1583,7143
268438164,ETOILER,7211,ETOILE,7,H. DEPARTEMENT,1,10:16:20,0,108,7143
268438176,ETOILER,7211,ETOILE,7,H. DEPARTEMENT,1,10:22:31,0,479,7143
268438188,ETOILER,7211,ETOILE,7,H. DEPARTEMENT,1,10:31:31,0,1019,7143
268438164,FIGAIRAR,7210,FIGAIRASSE,7,H. DEPARTEMENT,1,10:15:26,0,54,7143
268438176,FIGAIRAR,7210,FIGAIRASSE,7,H. DEPARTEMENT,1,10:21:41,0,429,7143
268438188,FIGAIRAR,7210,FIGAIRASSE,7,H. DEPARTEMENT,1,10:30:41,0,969,7143
268438280,FONTTROR,7225,FONT TROUVE,7,H. DEPARTEMENT,1,10:23:34,0,542,7143
268438295,FONTTROR,7225,FONT TROUVE,7,H. DEPARTEMENT,1,10:33:11,0,1119,7143
268438164,FONTTROR,7225,FONT TROUVE,7,H. DEPARTEMENT,1,10:44:36,0,1804,7143
268438164,FDEZEUER,7209,FRANCOIS DEZEUZE,7,H. DEPARTEMENT,1,10:14:40,0,8,7143
268438176,FDEZEUER,7209,FRANCOIS DEZEUZE,7,H. DEPARTEMENT,1,10:20:55,0,383,7143
268438188,FDEZEUER,7209,FRANCOIS DEZEUZE,7,H. DEPARTEMENT,1,10:29:55,0,923,7143
268438280,GARDIOLR,7223,GARDIOLES,7,H. DEPARTEMENT,1,10:22:48,0,496,7143
268438295,GARDIOLR,7223,GARDIOLES,7,H. DEPARTEMENT,1,10:32:15,0,1063,7143
268438164,GARDIOLR,7223,GARDIOLES,7,H. DEPARTEMENT,1,10:43:00,0,1708,7143
268438164,GOUARAR,7213,GOUARA,7,H. DEPARTEMENT,1,10:18:45,0,253,7143
268438176,GOUARAR,7213,GOUARA,7,H. DEPARTEMENT,1,10:25:00,0,628,7143
268438188,GOUARAR,7213,GOUARA,7,H. DEPARTEMENT,1,10:34:00,0,1168,7143
268438176,GREZESR,7202,GREZES,7,H. DEPARTEMENT,1,10:15:27,0,55,7143
268438260,GREZESR,7202,GREZES,7,H. DEPARTEMENT,1,10:33:27,0,1135,7143
268438238,GREZESR,7202,GREZES,7,H. DEPARTEMENT,1,10:52:27,0,2275,7143
268438176,EIFFELR,7204,GUSTAVE EIFFEL,7,H. DEPARTEMENT,1,10:17:11,0,159,7143
268438260,EIFFELR,7204,GUSTAVE EIFFEL,7,H. DEPARTEMENT,1,10:35:11,0,1239,7143
268438238,EIFFELR,7204,GUSTAVE EIFFEL,7,H. DEPARTEMENT,1,10:54:11,0,2379,7143
268438176,MARTELR,7201,LA MARTELLE,7,H. DEPARTEMENT,1,10:15:00,0,28,7143
268438260,MARTELR,7201,LA MARTELLE,7,H. DEPARTEMENT,1,10:33:00,0,1108,7143
268438238,MARTELR,7201,LA MARTELLE,7,H. DEPARTEMENT,1,10:52:00,0,2248,7143
268438280,LAPILES,3119,LA PILE,7,H. DEPARTEMENT,1,10:16:42,0,130,7143
268438295,LAPILES,3119,LA PILE,7,H. DEPARTEMENT,1,10:26:28,0,716,7143
268438164,LAPILES,3119,LA PILE,7,H. DEPARTEMENT,1,10:37:23,0,1371,7143
268438280,LASOURCR,7221,LA SOURCE,7,H. DEPARTEMENT,1,10:20:47,0,375,7143
268438295,LASOURCR,7221,LA SOURCE,7,H. DEPARTEMENT,1,10:30:10,0,938,7143
268438164,LASOURCR,7221,LA SOURCE,7,H. DEPARTEMENT,1,10:41:35,0,1623,7143
268438188,BOUIS7D,7164,LES BOUISSES,7,H. DEPARTEMENT,1,10:25:00,0,628,7143
268438223,BOUIS7D,7164,LES BOUISSES,7,H. DEPARTEMENT,1,10:44:00,0,1768,7143
268438307,BOUIS7D,7164,LES BOUISSES,7,H. DEPARTEMENT,1,11:02:00,0,2848,7143
268438164,CLEMENCE,5119,LYCEE CLEMENCEAU,7,H. DEPARTEMENT,1,10:24:04,0,572,7143
268438176,CLEMENCE,5119,LYCEE CLEMENCEAU,7,H. DEPARTEMENT,1,10:30:19,0,947,7143
268438188,CLEMENCE,5119,LYCEE CLEMENCEAU,7,H. DEPARTEMENT,1,10:39:19,0,1487,7143
268438176,COLLINER,7207,LYCEE J. FERRY,7,H. DEPARTEMENT,1,10:20:00,0,328,7143
268438188,COLLINER,7207,LYCEE J. FERRY,7,H. DEPARTEMENT,1,10:29:00,0,868,7143
268438260,COLLINER,7207,LYCEE J. FERRY,7,H. DEPARTEMENT,1,10:38:00,0,1408,7143
268438210,MONNETS,7237,LYCEE J. MONNET,7,H. DEPARTEMENT,1,10:21:04,0,392,7143
268438280,MONNETS,7237,LYCEE J. MONNET,7,H. DEPARTEMENT,1,10:31:48,0,1036,7143
268438295,MONNETS,7237,LYCEE J. MONNET,7,H. DEPARTEMENT,1,10:41:01,0,1589,7143
268438280,MAISSPOS,3120,MAISON SPORTS,7,H. DEPARTEMENT,1,10:17:34,0,182,7143
268438295,MAISSPOS,3120,MAISON SPORTS,7,H. DEPARTEMENT,1,10:27:11,0,759,7143
268438164,MAISSPOS,3120,MAISON SPORTS,7,H. DEPARTEMENT,1,10:38:36,0,1444,7143
268438176,MARTELIR,7206,MARTELLIERE,7,H. DEPARTEMENT,1,10:19:00,0,268,7143
268438188,MARTELIR,7206,MARTELLIERE,7,H. DEPARTEMENT,1,10:28:05,0,813,7143
268438260,MARTELIR,7206,MARTELLIERE,7,H. DEPARTEMENT,1,10:37:00,0,1348,7143
268438164,MASMERLR,7212,MAS DE MERLE,7,H. DEPARTEMENT,1,10:16:45,0,133,7143
268438176,MASMERLR,7212,MAS DE MERLE,7,H. DEPARTEMENT,1,10:23:00,0,508,7143
268438188,MASMERLR,7212,MAS DE MERLE,7,H. DEPARTEMENT,1,10:32:00,0,1048,7143
268438176,MTESTER,7205,MONSIEUR TESTE,7,H. DEPARTEMENT,1,10:18:16,0,224,7143
268438260,MTESTER,7205,MONSIEUR TESTE,7,H. DEPARTEMENT,1,10:36:16,0,1304,7143
268438238,MTESTER,7205,MONSIEUR TESTE,7,H. DEPARTEMENT,1,10:55:16,0,2444,7143
268438280,MURIERS7,7224,MURIERS,7,H. DEPARTEMENT,1,10:23:45,0,553,7143
268438295,MURIERS7,7224,MURIERS,7,H. DEPARTEMENT,1,10:32:42,0,1090,7143
268438164,MURIERS7,7224,MURIERS,7,H. DEPARTEMENT,1,10:43:57,0,1765,7143
268438295,OBSERVSN,2133,OBSERVATOIRE,7,H. DEPARTEMENT,1,10:19:21,0,289,7143
268438164,OBSERVSN,2133,OBSERVATOIRE,7,H. DEPARTEMENT,1,10:30:46,0,974,7143
268438176,OBSERVSN,2133,OBSERVATOIRE,7,H. DEPARTEMENT,1,10:37:01,0,1349,7143
268438188,ORMEAUXR,7262,ORMEAUX,7,H. DEPARTEMENT,1,10:26:00,0,688,7143
268438223,ORMEAUXR,7262,ORMEAUX,7,H. DEPARTEMENT,1,10:45:00,0,1828,7143
268438307,ORMEAUXR,7262,ORMEAUX,7,H. DEPARTEMENT,1,11:03:00,0,2908,7143
268438295,PEYROU6S,2220,PEYROU,7,H. DEPARTEMENT,1,10:21:21,0,409,7143
268438164,PEYROU6S,2220,PEYROU,7,H. DEPARTEMENT,1,10:32:46,0,1094,7143
268438176,PEYROU6S,2220,PEYROU,7,H. DEPARTEMENT,1,10:39:01,0,1469,7143
268438280,PLEIADER,7226,PLEIADE,7,H. DEPARTEMENT,1,10:25:00,0,628,7143
268438295,PLEIADER,7226,PLEIADE,7,H. DEPARTEMENT,1,10:33:59,0,1167,7143
268438164,PLEIADER,7226,PLEIADE,7,H. DEPARTEMENT,1,10:45:22,0,1850,7143
268438280,POUSERSS,3121,POUS DE LA SERS,7,H. DEPARTEMENT,1,10:18:32,0,240,7143
268438295,POUSERSS,3121,POUS DE LA SERS,7,H. DEPARTEMENT,1,10:28:09,0,817,7143
268438164,POUSERSS,3121,POUS DE LA SERS,7,H. DEPARTEMENT,1,10:39:34,0,1502,7143
268438295,STDENIE5,107,SAINT-DENIS,7,H. DEPARTEMENT,1,10:16:02,0,90,7143
268438164,STDENIE5,107,SAINT-DENIS,7,H. DEPARTEMENT,1,10:27:27,0,775,7143
268438176,STDENIE5,107,SAINT-DENIS,7,H. DEPARTEMENT,1,10:33:42,0,1150,7143
268438295,STGUILHS,2140,SAINT-GUILHEM,7,H. DEPARTEMENT,1,10:20:23,0,351,7143
268438164,STGUILHS,2140,SAINT-GUILHEM,7,H. DEPARTEMENT,1,10:31:31,0,1019,7143
268438176,STGUILHS,2140,SAINT-GUILHEM,7,H. DEPARTEMENT,1,10:38:03,0,1411,7143
268438280,STROCHS,3118,SAINT-ROCH,7,H. DEPARTEMENT,1,10:15:49,0,77,7143
268438295,STROCHS,3118,SAINT-ROCH,7,H. DEPARTEMENT,1,10:25:16,0,644,7143
268438164,STROCHS,3118,SAINT-ROCH,7,H. DEPARTEMENT,1,10:36:01,0,1289,7143
268438188,SGERMAIR,7263,SOPHIE GERMAIN,7,H. DEPARTEMENT,1,10:27:02,0,750,7143
268438223,SGERMAIR,7263,SOPHIE GERMAIN,7,H. DEPARTEMENT,1,10:46:02,0,1890,7143
268438307,SGERMAIR,7263,SOPHIE GERMAIN,7,H. DEPARTEMENT,1,11:04:02,0,2970,7143
268438246,BROUSSOE,6235,A. BROUSSONET,7,LA MARTELLE,0,10:28:04,0,812,7131
268438246,ALBCATBU,6237,ALBERT 1er,7,LA MARTELLE,0,10:29:35,0,903,7131
268438237,AFRANCEE,53201,ANATOLE FRANCE,7,LA MARTELLE,0,10:15:20,0,48,7131
268438246,AFRANCEE,53201,ANATOLE FRANCE,7,LA MARTELLE,0,10:37:45,0,1393,7131
268438237,BERTHELS,5214,BERTHELOT,7,LA MARTELLE,0,10:21:31,0,419,7131
268438246,CERVANTA,7109,CERVANTES,7,LA MARTELLE,0,10:22:54,0,502,7131
268438199,CERVANTA,7109,CERVANTES,7,LA MARTELLE,0,10:41:54,0,1642,7131
268438246,CHATEAUO,3141,CHATEAU D'O,7,LA MARTELLE,0,10:17:01,0,149,7131
268438199,CHATEAUO,3141,CHATEAU D'O,7,LA MARTELLE,0,10:36:01,0,1289,7131
268438246,ROGERE,7111,CITE ROGER,7,LA MARTELLE,0,10:24:02,0,570,7131
268438199,ROGERE,7111,CITE ROGER,7,LA MARTELLE,0,10:43:02,0,1710,7131
268438259,CRXROSIA,7128,CRX DES ROSIERS,7,LA MARTELLE,0,10:19:29,0,297,7131
268438237,CRXROSIA,7128,CRX DES ROSIERS,7,LA MARTELLE,0,10:34:30,0,1198,7131
268438246,CRXROSIA,7128,CRX DES ROSIERS,7,LA MARTELLE,0,10:57:04,0,2552,7131
268438237,ETOILEA,7120,ETOILE,7,LA MARTELLE,0,10:27:07,0,755,7131
268438237,FIGAIRAA,7121,FIGAIRASSE,7,LA MARTELLE,0,10:28:16,0,824,7131
268438246,FONTTROA,7107,FONT TROUVE,7,LA MARTELLE,0,10:20:05,0,333,7131
268438199,FONTTROA,7107,FONT TROUVE,7,LA MARTELLE,0,10:39:05,0,1473,7131
268438237,FDEZEUZA,7122,FRANCOIS DEZEUZE,7,LA MARTELLE,0,10:29:28,0,896,7131
268438246,GARDIOLA,7108,GARDIOLES,7,LA MARTELLE,0,10:21:33,0,421,7131
268438199,GARDIOLA,7108,GARDIOLES,7,LA MARTELLE,0,10:40:13,0,1541,7131
268438237,GARE17,17,GARE SAINT-ROCH,7,LA MARTELLE,0,10:17:30,0,178,7131
268438246,GARE17,17,GARE SAINT-ROCH,7,LA MARTELLE,0,10:40:01,0,1529,7131
268438237,GOUARAA,7118,GOUARA,7,LA MARTELLE,0,10:25:11,0,639,7131
268438259,GREZESA,7129,GREZES,7,LA MARTELLE,0,10:20:51,0,379,7131
268438237,GREZESA,7129,GREZES,7,LA MARTELLE,0,10:36:17,0,1305,7131
268438246,GREZESA,7129,GREZES,7,LA MARTELLE,0,10:58:51,0,2659,7131
268438259,EIFFELA,7127,GUSTAVE EIFFEL,7,LA MARTELLE,0,10:18:46,0,254,7131
268438237,EIFFELA,7127,GUSTAVE EIFFEL,7,LA MARTELLE,0,10:34:21,0,1189,7131
268438246,EIFFELA,7127,GUSTAVE EIFFEL,7,LA MARTELLE,0,10:56:49,0,2537,7131
268438199,HDEPARTE,7132,HOT. DEPARTEMENT,7,LA MARTELLE,0,10:33:00,0,1108,7131
268438246,JBART7E,7137,JEAN BART,7,LA MARTELLE,0,10:15:43,0,71,7131
268438199,JBART7E,7137,JEAN BART,7,LA MARTELLE,0,10:34:23,0,1191,7131
268438246,LASOURCA,7110,LA SOURCE,7,LA MARTELLE,0,10:23:33,0,541,7131
268438199,LASOURCA,7110,LA SOURCE,7,LA MARTELLE,0,10:42:33,0,1681,7131
268438237,LEPIC,7117,LEPIC,7,LA MARTELLE,0,10:24:14,0,582,7131
268438237,CLEMENCS,5213,LYCEE CLEMENCEAU,7,LA MARTELLE,0,10:21:16,0,404,7131
268438259,COLLINEA,7124,LYCEE J. FERRY,7,LA MARTELLE,0,10:15:29,0,57,7131
268438237,COLLINEA,7124,LYCEE J. FERRY,7,LA MARTELLE,0,10:30:30,0,958,7131
268438246,JMONNETS,9226,LYCEE J. MONNET,7,LA MARTELLE,0,10:14:46,0,14,7131
268438199,JMONNETS,9226,LYCEE J. MONNET,7,LA MARTELLE,0,10:33:46,0,1154,7131
268438246,MAISSPOE,3210,MAISON SPORTS,7,LA MARTELLE,0,10:26:30,0,718,7131
268438259,MARTELIA,7125,MARTELLIERE,7,LA MARTELLE,0,10:17:29,0,177,7131
268438237,MARTELIA,7125,MARTELLIERE,7,LA MARTELLE,0,10:32:30,0,1078,7131
268438237,MASMERLA,7119,MAS DE MERLE,7,LA MARTELLE,0,10:26:31,0,719,7131
268438259,MTESTEA,7126,MONSIEUR TESTE,7,LA MARTELLE,0,10:18:13,0,221,7131
268438237,MTESTEA,7126,MONSIEUR TESTE,7,LA MARTELLE,0,10:33:25,0,1133,7131
268438246,MTESTEA,7126,MONSIEUR TESTE,7,LA MARTELLE,0,10:55:31,0,2459,7131
268438237,MYRTHESA,7116,MYRTES,7,LA MARTELLE,0,10:23:17,0,525,7131
268438246,PEYROU6E,6236,PEYROU,7,LA MARTELLE,0,10:31:01,0,989,7131
268438246,PLEIADEA,7106,PLEIADE,7,LA MARTELLE,0,10:19:35,0,303,7131
268438199,PLEIADEA,7106,PLEIADE,7,LA MARTELLE,0,10:38:15,0,1423,7131
268438246,POUSERSE,3209,POUS DE LA SERS,7,LA MARTELLE,0,10:25:05,0,633,7131
268438237,RONDELES,5212,RONDELET,7,LA MARTELLE,0,10:19:22,0,290,7131
268438246,RONDELES,5212,RONDELET,7,LA MARTELLE,0,10:41:53,0,1641,7131
268438246,STDENIE1,1235,SAINT-DENIS,7,LA MARTELLE,0,10:35:01,0,1229,7131
268438246,STGUILHE,2221,SAINT-GUILHEM,7,LA MARTELLE,0,10:32:59,0,1107,7131
268438306,BROUSSOE,6235,A. BROUSSONET,7,LES BOUISSES,0,10:17:57,0,205,7164
268438271,BROUSSOE,6235,A. BROUSSONET,7,LES BOUISSES,0,10:37:04,0,1352,7164
268438306,ALBCATBU,6237,ALBERT 1er,7,LES BOUISSES,0,10:19:36,0,304,7164
268438271,ALBCATBU,6237,ALBERT 1er,7,LES BOUISSES,0,10:38:15,0,1423,7164
268438306,AFRANCEE,53201,ANATOLE FRANCE,7,LES BOUISSES,0,10:27:46,0,794,7164
268438222,BERTHELS,5214,BERTHELOT,7,LES BOUISSES,0,10:16:03,0,91,7164
268438306,BERTHELS,5214,BERTHELOT,7,LES BOUISSES,0,10:34:29,0,1197,7164
268438271,CERVANTA,7109,CERVANTES,7,LES BOUISSES,0,10:31:54,0,1042,7164
268438271,CHATEAUO,3141,CHATEAU D'O,7,LES BOUISSES,0,10:26:01,0,689,7164
268438271,ROGERE,7111,CITE ROGER,7,LES BOUISSES,0,10:33:02,0,1110,7164
268438222,ETOILEA,7120,ETOILE,7,LES BOUISSES,0,10:21:39,0,427,7164
268438306,ETOILEA,7120,ETOILE,7,LES BOUISSES,0,10:40:24,0,1552,7164
268438222,FIGAIRAA,7121,FIGAIRASSE,7,LES BOUISSES,0,10:22:48,0,496,7164
268438306,FIGAIRAA,7121,FIGAIRASSE,7,LES BOUISSES,0,10:41:12,0,1600,7164
268438271,FONTTROA,7107,FONT TROUVE,7,LES BOUISSES,0,10:29:05,0,873,7164
268438222,FDEZEUZA,7122,FRANCOIS DEZEUZE,7,LES BOUISSES,0,10:24:00,0,568,7164
268438306,FDEZEUZA,7122,FRANCOIS DEZEUZE,7,LES BOUISSES,0,10:42:24,0,1672,7164
268438271,GARDIOLA,7108,GARDIOLES,7,LES BOUISSES,0,10:30:13,0,941,7164
268438306,GARE17,17,GARE SAINT-ROCH,7,LES BOUISSES,0,10:30:26,0,954,7164
268438222,GOUARAA,7118,GOUARA,7,LES BOUISSES,0,10:18:32,0,240,7164
268438306,GOUARAA,7118,GOUARA,7,LES BOUISSES,0,10:37:37,0,1385,7164
268438271,HDEPARTE,7132,HOT. DEPARTEMENT,7,LES BOUISSES,0,10:23:00,0,508,7164
268438212,HDEPARTE,7132,HOT. DEPARTEMENT,7,LES BOUISSES,0,10:43:00,0,1708,7164
268438271,JBART7E,7137,JEAN BART,7,LES BOUISSES,0,10:24:23,0,591,7164
268438271,LASOURCA,7110,LA SOURCE,7,LES BOUISSES,0,10:32:33,0,1081,7164
268438222,LEPIC,7117,LEPIC,7,LES BOUISSES,0,10:17:35,0,183,7164
268438306,LEPIC,7117,LEPIC,7,LES BOUISSES,0,10:36:40,0,1328,7164
268438222,CLEMENCS,5213,LYCEE CLEMENCEAU,7,LES BOUISSES,0,10:14:37,0,5,7164
268438306,CLEMENCS,5213,LYCEE CLEMENCEAU,7,LES BOUISSES,0,10:33:42,0,1150,7164
268438222,COLLINEA,7124,LYCEE J. FERRY,7,LES BOUISSES,0,10:25:02,0,630,7164
268438271,JMONNETS,9226,LYCEE J. MONNET,7,LES BOUISSES,0,10:23:46,0,554,7164
268438306,MAISSPOE,3210,MAISON SPORTS,7,LES BOUISSES,0,10:16:31,0,119,7164
268438271,MAISSPOE,3210,MAISON SPORTS,7,LES BOUISSES,0,10:35:10,0,1238,7164
268438222,MARTELIA,7125,MARTELLIERE,7,LES BOUISSES,0,10:26:45,0,733,7164
268438222,MASMERLA,7119,MAS DE MERLE,7,LES BOUISSES,0,10:21:03,0,391,7164
268438306,MASMERLA,7119,MAS DE MERLE,7,LES BOUISSES,0,10:39:29,0,1497,7164
268438222,MYRTHESA,7116,MYRTES,7,LES BOUISSES,0,10:16:38,0,126,7164
268438306,MYRTHESA,7116,MYRTES,7,LES BOUISSES,0,10:35:43,0,1271,7164
268438222,ORMEAUXA,7162,ORMEAUX,7,LES BOUISSES,0,10:30:02,0,930,7164
268438306,ORMEAUXA,7162,ORMEAUX,7,LES BOUISSES,0,10:48:26,0,2034,7164
268438271,ORMEAUXA,7162,ORMEAUX,7,LES BOUISSES,0,11:07:01,0,3149,7164
268438306,PEYROU6E,6236,PEYROU,7,LES BOUISSES,0,10:21:26,0,414,7164
268438271,PEYROU6E,6236,PEYROU,7,LES BOUISSES,0,10:40:01,0,1529,7164
268438271,PLEIADEA,7106,PLEIADE,7,LES BOUISSES,0,10:28:15,0,823,7164
268438306,POUSERSE,3209,POUS DE LA SERS,7,LES BOUISSES,0,10:14:58,0,26,7164
268438271,POUSERSE,3209,POUS DE LA SERS,7,LES BOUISSES,0,10:34:05,0,1173,7164
268438306,RONDELES,5212,RONDELET,7,LES BOUISSES,0,10:32:18,0,1066,7164
268438306,STDENIE1,1235,SAINT-DENIS,7,LES BOUISSES,0,10:25:26,0,654,7164
268438271,STDENIE1,1235,SAINT-DENIS,7,LES BOUISSES,0,10:44:01,0,1769,7164
268438306,STGUILHE,2221,SAINT-GUILHEM,7,LES BOUISSES,0,10:23:24,0,532,7164
268438271,STGUILHE,2221,SAINT-GUILHEM,7,LES BOUISSES,0,10:41:59,0,1647,7164
268438222,SGERMAIA,7161,SOPHIE GERMAIN,7,LES BOUISSES,0,10:27:55,0,803,7164
268438306,SGERMAIA,7161,SOPHIE GERMAIN,7,LES BOUISSES,0,10:46:19,0,1907,7164
268438271,SGERMAIA,7161,SOPHIE GERMAIN,7,LES BOUISSES,0,11:04:54,0,3022,7164
268439081,CHAMBERR,8220,CHAMBERY,8,CITE DE L'ARME,1,10:24:15,0,583,3220
268439043,CHAMBERR,8220,CHAMBERY,8,CITE DE L'ARME,1,10:54:15,0,2383,3220
268439087,CHAMBERR,8220,CHAMBERY,8,CITE DE L'ARME,1,11:24:15,0,4183,3220
268439081,AIGUERES,8221,CLG AIGUERELLES,8,CITE DE L'ARME,1,10:24:59,0,627,3220
268439043,AIGUERES,8221,CLG AIGUERELLES,8,CITE DE L'ARME,1,10:54:59,0,2427,3220
268439087,AIGUERES,8221,CLG AIGUERELLES,8,CITE DE L'ARME,1,11:24:59,0,4227,3220
268439081,BAZILLES,16206,FREDERIC BAZILLE,8,CITE DE L'ARME,1,10:21:00,0,388,3220
268439043,BAZILLES,16206,FREDERIC BAZILLE,8,CITE DE L'ARME,1,10:51:00,0,2188,3220
268439087,BAZILLES,16206,FREDERIC BAZILLE,8,CITE DE L'ARME,1,11:21:00,0,3988,3220
268439081,GAREROUT,21,GARE PT DE SETE,8,CITE DE L'ARME,1,10:20:00,0,328,3220
268439043,GAREROUT,21,GARE PT DE SETE,8,CITE DE L'ARME,1,10:50:00,0,2128,3220
268439087,GAREROUT,21,GARE PT DE SETE,8,CITE DE L'ARME,1,11:20:00,0,3928,3220
268439081,HELIOSR,8218,HELIOS,8,CITE DE L'ARME,1,10:23:00,0,508,3220
268439043,HELIOSR,8218,HELIOS,8,CITE DE L'ARME,1,10:53:00,0,2308,3220
268439087,HELIOSR,8218,HELIOS,8,CITE DE L'ARME,1,11:23:00,0,4108,3220
268439081,MIRAILHA,10125,JEAN MIRAILHET,8,CITE DE L'ARME,1,10:25:35,0,663,3220
268439043,MIRAILHA,10125,JEAN MIRAILHET,8,CITE DE L'ARME,1,10:55:35,0,2463,3220
268439087,MIRAILHA,10125,JEAN MIRAILHET,8,CITE DE L'ARME,1,11:25:35,0,4263,3220
268439081,LUCULLUS,3219,LUCULLUS,8,CITE DE L'ARME,1,10:28:17,0,825,3220
268439043,LUCULLUS,3219,LUCULLUS,8,CITE DE L'ARME,1,10:58:17,0,2625,3220
268439087,LUCULLUS,3219,LUCULLUS,8,CITE DE L'ARME,1,11:28:17,0,4425,3220
268439081,SOLEIADR,8219,SOLEIADO,8,CITE DE L'ARME,1,10:23:25,0,533,3220
268439043,SOLEIADR,8219,SOLEIADO,8,CITE DE L'ARME,1,10:53:25,0,2333,3220
268439087,SOLEIADR,8219,SOLEIADO,8,CITE DE L'ARME,1,11:23:25,0,4133,3220
268439082,CHAMBERA,8105,CHAMBERY,8,GARE SAINT-ROCH,0,10:32:35,0,1083,11
268439044,CHAMBERA,8105,CHAMBERY,8,GARE SAINT-ROCH,0,11:02:35,0,2883,11
268439088,CHAMBERA,8105,CHAMBERY,8,GARE SAINT-ROCH,0,11:32:35,0,4683,11
268439082,CARMES,3220,CITE DE L'ARME,8,GARE SAINT-ROCH,0,10:30:00,0,928,11
268439044,CARMES,3220,CITE DE L'ARME,8,GARE SAINT-ROCH,0,11:00:00,0,2728,11
268439088,CARMES,3220,CITE DE L'ARME,8,GARE SAINT-ROCH,0,11:30:00,0,4528,11
268439082,CMIONE,3112,CITE MION,8,GARE SAINT-ROCH,0,10:34:00,0,1168,11
268439044,CMIONE,3112,CITE MION,8,GARE SAINT-ROCH,0,11:04:00,0,2968,11
268439088,CMIONE,3112,CITE MION,8,GARE SAINT-ROCH,0,11:34:00,0,4768,11
268439082,AIGUEREE,8104,CLG AIGUERELLES,8,GARE SAINT-ROCH,0,10:32:00,0,1048,11
268439044,AIGUEREE,8104,CLG AIGUERELLES,8,GARE SAINT-ROCH,0,11:02:00,0,2848,11
268439088,AIGUEREE,8104,CLG AIGUERELLES,8,GARE SAINT-ROCH,0,11:32:00,0,4648,11
268439082,HRENEE,8132,HENRI RENE,8,GARE SAINT-ROCH,0,10:35:57,0,1285,11
268439044,HRENEE,8132,HENRI RENE,8,GARE SAINT-ROCH,0,11:06:36,0,3124,11
268439088,HRENEE,8132,HENRI RENE,8,GARE SAINT-ROCH,0,11:36:36,0,4924,11
268439082,MIRAILHE,8103,JEAN MIRAILHET,8,GARE SAINT-ROCH,0,10:31:00,0,988,11
268439044,MIRAILHE,8103,JEAN MIRAILHET,8,GARE SAINT-ROCH,0,11:01:00,0,2788,11
268439088,MIRAILHE,8103,JEAN MIRAILHET,8,GARE SAINT-ROCH,0,11:31:00,0,4588,11
268439082,CARNOTE,8131,PLACE CARNOT,8,GARE SAINT-ROCH,0,10:35:15,0,1243,11
268439044,CARNOTE,8131,PLACE CARNOT,8,GARE SAINT-ROCH,0,11:05:40,0,3068,11
268439088,CARNOTE,8131,PLACE CARNOT,8,GARE SAINT-ROCH,0,11:35:40,0,4868,11
268439082,SOLEIADA,8106,SOLEIADO,8,GARE SAINT-ROCH,0,10:33:25,0,1133,11
268439044,SOLEIADA,8106,SOLEIADO,8,GARE SAINT-ROCH,0,11:03:25,0,2933,11
268439088,SOLEIADA,8106,SOLEIADO,8,GARE SAINT-ROCH,0,11:33:25,0,4733,11
268438495,NOBELS,12125,ALFRED NOBEL,9,PLACE DE L'EUROPE,0,10:16:42,0,130,9049
268438482,ANOBELE,12220,ALFRED NOBEL,9,PLACE DE L'EUROPE,1,10:19:27,0,295,9349
268438520,NOBELS,12125,ALFRED NOBEL,9,PLACE DE L'EUROPE,0,10:30:28,0,956,9049
268438508,ANOBELE,12220,ALFRED NOBEL,9,PLACE DE L'EUROPE,1,10:33:47,0,1155,9349
268438483,NOBELS,12125,ALFRED NOBEL,9,PLACE DE L'EUROPE,0,10:45:28,0,1856,9049
268438657,ANOBELE,12220,ALFRED NOBEL,9,PLACE DE L'EUROPE,1,10:48:47,0,2055,9349
268438495,EUREKAS,12124,EUREKA,9,PLACE DE L'EUROPE,0,10:17:41,0,189,9049
268438482,EUREKAE,12222,EUREKA,9,PLACE DE L'EUROPE,1,10:19:16,0,284,9349
268438520,EUREKAS,12124,EUREKA,9,PLACE DE L'EUROPE,0,10:31:00,0,988,9049
268438508,EUREKAE,12222,EUREKA,9,PLACE DE L'EUROPE,1,10:33:02,0,1110,9349
268438483,EUREKAS,12124,EUREKA,9,PLACE DE L'EUROPE,0,10:46:00,0,1888,9049
268438657,EUREKAE,12222,EUREKA,9,PLACE DE L'EUROPE,1,10:48:02,0,2010,9349
268438495,GALLOI9S,9139,EVARISTE GALOIS,9,PLACE DE L'EUROPE,0,10:24:41,0,609,9049
268438508,EGALLOIS,12205,EVARISTE GALOIS,9,PLACE DE L'EUROPE,1,10:28:01,0,809,9349
268438520,GALLOI9S,9139,EVARISTE GALOIS,9,PLACE DE L'EUROPE,0,10:38:00,0,1408,9049
268438657,EGALLOIS,12205,EVARISTE GALOIS,9,PLACE DE L'EUROPE,1,10:43:01,0,1709,9349
268438483,GALLOI9S,9139,EVARISTE GALOIS,9,PLACE DE L'EUROPE,0,10:53:00,0,2308,9049
268438496,EGALLOIS,12205,EVARISTE GALOIS,9,PLACE DE L'EUROPE,1,10:58:01,0,2609,9349
268438519,COUPERIA,11104,F. COUPERIN,9,PLACE DE L'EUROPE,1,10:14:35,0,3,9349
268438495,COUPERIR,11219,F. COUPERIN,9,PLACE DE L'EUROPE,0,10:15:31,0,59,9049
268438482,COUPERIA,11104,F. COUPERIN,9,PLACE DE L'EUROPE,1,10:21:02,0,390,9349
268438520,COUPERIR,11219,F. COUPERIN,9,PLACE DE L'EUROPE,0,10:28:50,0,858,9049
268438508,COUPERIA,11104,F. COUPERIN,9,PLACE DE L'EUROPE,1,10:35:16,0,1244,9349
268438483,COUPERIR,11219,F. COUPERIN,9,PLACE DE L'EUROPE,0,10:43:50,0,1758,9049
268438482,MARCONIA,10229,G. MARCONI,9,PLACE DE L'EUROPE,1,10:15:25,0,53,9349
268438495,MARCONIR,10123,G. MARCONI,9,PLACE DE L'EUROPE,0,10:23:37,0,545,9049
268438508,MARCONIA,10229,G. MARCONI,9,PLACE DE L'EUROPE,1,10:29:11,0,879,9349
268438520,MARCONIR,10123,G. MARCONI,9,PLACE DE L'EUROPE,0,10:36:56,0,1344,9049
268438657,MARCONIA,10229,G. MARCONI,9,PLACE DE L'EUROPE,1,10:44:11,0,1779,9349
268438483,MARCONIR,10123,G. MARCONI,9,PLACE DE L'EUROPE,0,10:51:56,0,2244,9049
268438508,CAZALR,16235,LEON CAZAL,9,PLACE DE L'EUROPE,1,10:17:23,0,171,9349
268438656,CAZALA,16135,LEON CAZAL,9,PLACE DE L'EUROPE,0,10:17:53,0,201,9049
268438657,CAZALR,16235,LEON CAZAL,9,PLACE DE L'EUROPE,1,10:32:23,0,1071,9349
268438495,CAZALA,16135,LEON CAZAL,9,PLACE DE L'EUROPE,0,10:33:34,0,1142,9049
268438520,CAZALA,16135,LEON CAZAL,9,PLACE DE L'EUROPE,0,10:46:53,0,1941,9049
268438496,CAZALR,16235,LEON CAZAL,9,PLACE DE L'EUROPE,1,10:47:23,0,1971,9349
268438482,LEPINEE,9235,LOUIS LEPINE,9,PLACE DE L'EUROPE,1,10:16:27,0,115,9349
268438495,LEPINES,9137,LOUIS LEPINE,9,PLACE DE L'EUROPE,0,10:20:34,0,362,9049
268438508,LEPINEE,9235,LOUIS LEPINE,9,PLACE DE L'EUROPE,1,10:30:47,0,975,9349
268438520,LEPINES,9137,LOUIS LEPINE,9,PLACE DE L'EUROPE,0,10:34:40,0,1208,9049
268438657,LEPINEE,9235,LOUIS LEPINE,9,PLACE DE L'EUROPE,1,10:45:47,0,1875,9349
268438483,LEPINES,9137,LOUIS LEPINE,9,PLACE DE L'EUROPE,0,10:49:40,0,2108,9049
268438656,MILLENAA,10133,MILLENAIRE,9,PLACE DE L'EUROPE,0,10:15:00,0,28,9049
268438508,MILLENAR,10233,MILLENAIRE,9,PLACE DE L'EUROPE,1,10:22:01,0,449,9349
268438495,MILLENAA,10133,MILLENAIRE,9,PLACE DE L'EUROPE,0,10:30:41,0,969,9049
268438657,MILLENAR,10233,MILLENAIRE,9,PLACE DE L'EUROPE,1,10:37:01,0,1349,9349
268438520,MILLENAA,10133,MILLENAIRE,9,PLACE DE L'EUROPE,0,10:44:00,0,1768,9049
268438496,MILLENAR,10233,MILLENAIRE,9,PLACE DE L'EUROPE,1,10:52:01,0,2249,9349
268438656,PLIROND1,16134,PARC LIRONDE,9,PLACE DE L'EUROPE,0,10:17:00,0,148,9049
268438508,PLIROND2,16234,PARC LIRONDE,9,PLACE DE L'EUROPE,1,10:18:01,0,209,9349
268438495,PLIROND1,16134,PARC LIRONDE,9,PLACE DE L'EUROPE,0,10:32:41,0,1089,9049
268438657,PLIROND2,16234,PARC LIRONDE,9,PLACE DE L'EUROPE,1,10:33:01,0,1109,9349
268438520,PLIROND1,16134,PARC LIRONDE,9,PLACE DE L'EUROPE,0,10:46:00,0,1888,9049
268438496,PLIROND2,16234,PARC LIRONDE,9,PLACE DE L'EUROPE,1,10:48:01,0,2009,9349
268438495,PINVILLS,11220,PINVILLE,9,PLACE DE L'EUROPE,0,10:15:38,0,66,9049
268438482,PINVILLE,11103,PINVILLE,9,PLACE DE L'EUROPE,1,10:20:24,0,352,9349
268438520,PINVILLS,11220,PINVILLE,9,PLACE DE L'EUROPE,0,10:29:24,0,892,9049
268438508,PINVILLE,11103,PINVILLE,9,PLACE DE L'EUROPE,1,10:34:38,0,1206,9349
268438483,PINVILLS,11220,PINVILLE,9,PLACE DE L'EUROPE,0,10:44:24,0,1792,9049
268438657,PINVILLE,11103,PINVILLE,9,PLACE DE L'EUROPE,1,10:49:38,0,2106,9349
268438508,P_EUROPR,9249,PL. DE L'EUROPE,9,PLACE DE L'EUROPE,1,10:15:00,0,28,9349
268438520,P_EUROPE,9149,PL. DE L'EUROPE,9,PLACE DE L'EUROPE,0,10:25:00,0,628,9049
268438657,P_EUROPR,9249,PL. DE L'EUROPE,9,PLACE DE L'EUROPE,1,10:30:00,0,928,9349
268438483,P_EUROPE,9149,PL. DE L'EUROPE,9,PLACE DE L'EUROPE,0,10:40:00,0,1528,9049
268438496,P_EUROPR,9249,PL. DE L'EUROPE,9,PLACE DE L'EUROPE,1,10:45:00,0,1828,9349
268438509,P_EUROPE,9149,PL. DE L'EUROPE,9,PLACE DE L'EUROPE,0,10:55:00,0,2428,9049
268438508,PL_FRANT,9247,PLACE DE FRANCE,9,PLACE DE L'EUROPE,1,10:25:01,0,629,9349
268438495,PL_FRANE,9146,PLACE DE FRANCE,9,PLACE DE L'EUROPE,0,10:28:41,0,849,9049
268438657,PL_FRANT,9247,PLACE DE FRANCE,9,PLACE DE L'EUROPE,1,10:40:01,0,1529,9349
268438520,PL_FRANE,9146,PLACE DE FRANCE,9,PLACE DE L'EUROPE,0,10:42:00,0,1648,9049
268438496,PL_FRANT,9247,PLACE DE FRANCE,9,PLACE DE L'EUROPE,1,10:55:01,0,2429,9349
268438483,PL_FRANE,9146,PLACE DE FRANCE,9,PLACE DE L'EUROPE,0,10:57:00,0,2548,9049
268438519,PTJUVENR,16236,PONT JUVENAL,9,PLACE DE L'EUROPE,1,10:17:36,0,184,9349
268438656,PTJUVENA,16136,PONT JUVENAL,9,PLACE DE L'EUROPE,0,10:19:39,0,307,9049
268438482,PTJUVENR,16236,PONT JUVENAL,9,PLACE DE L'EUROPE,1,10:25:06,0,634,9349
268438495,PTJUVENA,16136,PONT JUVENAL,9,PLACE DE L'EUROPE,0,10:35:54,0,1282,9049
268438508,PTJUVENR,16236,PONT JUVENAL,9,PLACE DE L'EUROPE,1,10:38:52,0,1460,9349
268438520,PTJUVENA,16136,PONT JUVENAL,9,PLACE DE L'EUROPE,0,10:49:13,0,2081,9049
268438508,STMICHEE,9208,SAINT-MICHEL,9,PLACE DE L'EUROPE,1,10:16:11,0,99,9349
268438657,STMICHEE,9208,SAINT-MICHEL,9,PLACE DE L'EUROPE,1,10:31:11,0,999,9349
268438496,STMICHEE,9208,SAINT-MICHEL,9,PLACE DE L'EUROPE,1,10:46:11,0,1899,9349
268438495,MORSES,9140,SAMUEL MORSE,9,PLACE DE L'EUROPE,0,10:25:39,0,667,9049
268438508,MORSEE,9239,SAMUEL MORSE,9,PLACE DE L'EUROPE,1,10:26:59,0,747,9349
268438520,MORSES,9140,SAMUEL MORSE,9,PLACE DE L'EUROPE,0,10:38:58,0,1466,9049
268438657,MORSEE,9239,SAMUEL MORSE,9,PLACE DE L'EUROPE,1,10:41:59,0,1647,9349
268438483,MORSES,9140,SAMUEL MORSE,9,PLACE DE L'EUROPE,0,10:53:58,0,2366,9049
268438496,MORSEE,9239,SAMUEL MORSE,9,PLACE DE L'EUROPE,1,10:56:59,0,2547,9349
268438656,VAUGUIEA,10144,VAUGUIERES,9,PLACE DE L'EUROPE,0,10:15:37,0,65,9049
268438508,VAUGUIER,10251,VAUGUIERES,9,PLACE DE L'EUROPE,1,10:19:58,0,326,9349
268438495,VAUGUIEA,10144,VAUGUIERES,9,PLACE DE L'EUROPE,0,10:30:31,0,959,9049
268438657,VAUGUIER,10251,VAUGUIERES,9,PLACE DE L'EUROPE,1,10:34:58,0,1226,9349
268438520,VAUGUIEA,10144,VAUGUIERES,9,PLACE DE L'EUROPE,0,10:44:37,0,1805,9049
268438496,VAUGUIER,10251,VAUGUIERES,9,PLACE DE L'EUROPE,1,10:49:58,0,2126,9349
268438495,VPOSTER,11218,VIEILLE POSTE,9,PLACE DE L'EUROPE,0,10:14:41,0,9,9049
268438519,VPOSTEA,11105,VIEILLE POSTE,9,PLACE DE L'EUROPE,1,10:15:29,0,57,9349
268438482,VPOSTEA,11105,VIEILLE POSTE,9,PLACE DE L'EUROPE,1,10:22:16,0,464,9349
268438520,VPOSTER,11218,VIEILLE POSTE,9,PLACE DE L'EUROPE,0,10:28:00,0,808,9049
268438508,VPOSTEA,11105,VIEILLE POSTE,9,PLACE DE L'EUROPE,1,10:36:02,0,1290,9349
268438483,VPOSTER,11218,VIEILLE POSTE,9,PLACE DE L'EUROPE,0,10:43:00,0,1708,9049
268438482,VOLTAE,9236,VOLTA FIZEAU,9,PLACE DE L'EUROPE,1,10:16:23,0,111,9349
268438495,VOLTAS,9138,VOLTA FIZEAU,9,PLACE DE L'EUROPE,0,10:21:38,0,426,9049
268438508,VOLTAE,9236,VOLTA FIZEAU,9,PLACE DE L'EUROPE,1,10:30:09,0,937,9349
268438520,VOLTAS,9138,VOLTA FIZEAU,9,PLACE DE L'EUROPE,0,10:35:24,0,1252,9049
268438657,VOLTAE,9236,VOLTA FIZEAU,9,PLACE DE L'EUROPE,1,10:45:09,0,1837,9349
268438483,VOLTAS,9138,VOLTA FIZEAU,9,PLACE DE L'EUROPE,0,10:50:24,0,2152,9049
268438495,WALHALL,9152,WALHALLA,9,PLACE DE L'EUROPE,0,10:18:49,0,257,9049
268438520,WALHALL,9152,WALHALLA,9,PLACE DE L'EUROPE,0,10:32:35,0,1083,9049
268438483,WALHALL,9152,WALHALLA,9,PLACE DE L'EUROPE,0,10:47:35,0,1983,9049
